{"features":[{"geometry":{"coordinates":[-1.205577,46.150444],"type":"Point"},"properties":{"code":"1226","description":"[PlgCBPe] AScln","id":"MOBIITI:Quay:80416","name":"Plage Chef de Baie","parent_station":"MOBIITI:StopPlace:54592","wheelchair_boarding":"available"},"type":"Feature"},{"geometry":{"coordinates":[-0.943642,46.141579],"type":"Point"},"properties":{"description":"","id":"MOBIITI:StopPlace:53988","name":"Stade de Saint Christophe","wheelchair_boarding":"unknown"},"type":"Feature"},{"geometry":{"coordinates":[-1.013455,46.156425],"type":"Point"},"properties":{"code":"6204","description":"","id":"MOBIITI:Quay:79576","name":"Mairie de Montroy","parent_station":"MOBIITI:StopPlace:53991","wheelchair_boarding":"unknown"},"type":"Feature"},{"geometry":{"coordinates":[-1.178053,46.16917],"type":"Point"},"properties":{"description":"","id":"MOBIITI:StopPlace:54371","name":"Luxembourg","wheelchair_boarding":"available"},"type":"Feature"},{"geometry":{"coordinates":[-1.185318,46.170513],"type":"Point"},"properties":{"description":"","id":"MOBIITI:StopPlace:54377","name":"La Tour","wheelchair_boarding":"not available"},"type":"Feature"},{"geometry":{"coordinates":[-1.190391,46.165356],"type":"Point"},"properties":{"code":"1139","description":"[VgoinAy] Abri","id":"MOBIITI:Quay:79226","name":"Vaugouin","parent_station":"MOBIITI:StopPlace:53807","wheelchair_boarding":"available"},"type":"Feature"},{"geometry":{"coordinates":[-1.175754,46.202057],"type":"Point"},"properties":{"description":"","id":"MOBIITI:StopPlace:54109","name":"Grand Large","wheelchair_boarding":"unknown"},"type":"Feature"},{"geometry":{"coordinates":[-1.006192,46.124229],"type":"Point"},"properties":{"code":"7206","description":"","id":"MOBIITI:Quay:79607","name":"Fief Jaulin","parent_station":"MOBIITI:StopPlace:54007","wheelchair_boarding":"unknown"},"type":"Feature"},{"geometry":{"coordinates":[-1.030399,46.201977],"type":"Point"},"properties":{"code":"4428","description":"","id":"MOBIITI:Quay:105358","name":"Usseau Ecole","parent_station":"MOBIITI:StopPlace:53958","wheelchair_boarding":"unknown"},"type":"Feature"},{"geometry":{"coordinates":[-1.117893,46.151382],"type":"Point"},"properties":{"description":"","id":"MOBIITI:StopPlace:54047","name":"Convention","wheelchair_boarding":"available"},"type":"Feature"},{"geometry":{"coordinates":[-1.145427,46.158176],"type":"Point"},"properties":{"code":"1026","description":"[HopitVi] Abri","id":"MOBIITI:Quay:79275","name":"Hôpital","parent_station":"MOBIITI:StopPlace:53834","wheelchair_boarding":"available"},"type":"Feature"},{"geometry":{"coordinates":[-1.182037,46.192825],"type":"Point"},"properties":{"description":"","id":"MOBIITI:StopPlace:54104","name":"Le Chêne","wheelchair_boarding":"unknown"},"type":"Feature"},{"geometry":{"coordinates":[-1.090277,46.075417],"type":"Point"},"properties":{"description":"","id":"MOBIITI:StopPlace:54032","name":"Saint-Marsault","wheelchair_boarding":"not available"},"type":"Feature"},{"geometry":{"coordinates":[-1.150407,46.177887],"type":"Point"},"properties":{"code":"2027","description":"","id":"MOBIITI:Quay:79386","name":"Flandres - Lycée Vieljeux","parent_station":"MOBIITI:StopPlace:53897","wheelchair_boarding":"unknown"},"type":"Feature"},{"geometry":{"coordinates":[-1.149569,46.158997],"type":"Point"},"properties":{"description":"Maubec","id":"MOBIITI:StopPlace:53837","name":"Dames Blanches","wheelchair_boarding":"available"},"type":"Feature"},{"geometry":{"coordinates":[-1.123893,46.18166],"type":"Point"},"properties":{"code":"3041","description":"","id":"MOBIITI:Quay:79825","name":"Le Pressoir","parent_station":"MOBIITI:StopPlace:54127","wheelchair_boarding":"unknown"},"type":"Feature"},{"geometry":{"coordinates":[-1.051995,46.112469],"type":"Point"},"properties":{"description":"","id":"MOBIITI:StopPlace:54320","name":"Le Moulin de Plaisance","wheelchair_boarding":"unknown"},"type":"Feature"},{"geometry":{"coordinates":[-1.089799,46.073368],"type":"Point"},"properties":{"code":"9030","description":"[MaiChGa]","id":"MOBIITI:Quay:79750","name":"Mairie de Châtelaillon-Plage","parent_station":"MOBIITI:StopPlace:54084","wheelchair_boarding":"not available"},"type":"Feature"},{"geometry":{"coordinates":[-1.154124,46.162029],"type":"Point"},"properties":{"code":"1057","description":"[PdV_J] Quai J","id":"MOBIITI:Quay:95272","name":"Place de Verdun","parent_station":"MOBIITI:StopPlace:53831","wheelchair_boarding":"not available"},"type":"Feature"},{"geometry":{"coordinates":[-1.12665,46.152912],"type":"Point"},"properties":{"description":"","id":"MOBIITI:StopPlace:54045","name":"Lavoisier","wheelchair_boarding":"available"},"type":"Feature"},{"geometry":{"coordinates":[-1.140587,46.18259],"type":"Point"},"properties":{"code":"2050","description":"","id":"MOBIITI:Quay:79399","name":"L'Ebeaupin","parent_station":"MOBIITI:StopPlace:53903","wheelchair_boarding":"unknown"},"type":"Feature"},{"geometry":{"coordinates":[-1.154082,46.156216],"type":"Point"},"properties":{"description":"","id":"MOBIITI:StopPlace:54615","name":"Embarcadère Vieux-Port","wheelchair_boarding":"not available"},"type":"Feature"},{"geometry":{"coordinates":[-1.073999,46.082447],"type":"Point"},"properties":{"description":"","id":"MOBIITI:StopPlace:54115","name":"Loin du Bruit","wheelchair_boarding":"unknown"},"type":"Feature"},{"geometry":{"coordinates":[-1.184536,46.157673],"type":"Point"},"properties":{"description":"","id":"MOBIITI:StopPlace:54577","name":"Bourbonnais","wheelchair_boarding":"available"},"type":"Feature"},{"geometry":{"coordinates":[-1.121091,46.141438],"type":"Point"},"properties":{"code":"8019","description":"","id":"MOBIITI:Quay:79621","name":"Cottes Mailles","parent_station":"MOBIITI:StopPlace:54015","wheelchair_boarding":"unknown"},"type":"Feature"},{"geometry":{"coordinates":[-1.106216,46.199253],"type":"Point"},"properties":{"code":"3411","description":"[ParadSX] Abri","id":"MOBIITI:Quay:79430","name":"Le Paradis","parent_station":"MOBIITI:StopPlace:53919","wheelchair_boarding":"available"},"type":"Feature"},{"geometry":{"coordinates":[-1.14933,46.220509],"type":"Point"},"properties":{"code":"2709","description":"","id":"MOBIITI:Quay:79787","name":"Moulin Neuf","parent_station":"MOBIITI:StopPlace:54107","wheelchair_boarding":"unknown"},"type":"Feature"},{"geometry":{"coordinates":[-1.155627,46.164513],"type":"Point"},"properties":{"description":"","id":"MOBIITI:StopPlace:53864","name":"Delayant","wheelchair_boarding":"unknown"},"type":"Feature"},{"geometry":{"coordinates":[-1.092572,46.155418],"type":"Point"},"properties":{"description":"","id":"MOBIITI:StopPlace:54149","name":"Salle Omnisports","wheelchair_boarding":"available"},"type":"Feature"},{"geometry":{"coordinates":[-1.017932,46.115402],"type":"Point"},"properties":{"code":"9413","description":"","id":"MOBIITI:Quay:79602","name":"Le Puits","parent_station":"MOBIITI:StopPlace:54005","wheelchair_boarding":"unknown"},"type":"Feature"},{"geometry":{"coordinates":[-1.017944,46.115383],"type":"Point"},"properties":{"description":"","id":"MOBIITI:StopPlace:54005","name":"Le Puits","wheelchair_boarding":"unknown"},"type":"Feature"},{"geometry":{"coordinates":[-1.098553,46.103992],"type":"Point"},"properties":{"code":"8410","description":"[TertrGa]","id":"MOBIITI:Quay:79725","name":"Les Tertres","parent_station":"MOBIITI:StopPlace:54070","wheelchair_boarding":"not available"},"type":"Feature"},{"geometry":{"coordinates":[-1.180625,46.169403],"type":"Point"},"properties":{"code":"1352","description":"[ResisLP] AScen","id":"MOBIITI:Quay:79692","name":"Résistance","parent_station":"MOBIITI:StopPlace:54053","wheelchair_boarding":"not available"},"type":"Feature"},{"geometry":{"coordinates":[-1.091485,46.065922],"type":"Point"},"properties":{"code":"9026","description":"","id":"MOBIITI:Quay:79816","name":"Les Dunes","parent_station":"MOBIITI:StopPlace:54122","wheelchair_boarding":"unknown"},"type":"Feature"},{"geometry":{"coordinates":[-1.159888,46.199619],"type":"Point"},"properties":{"code":"2523","description":"[MoRagPV] Abri","id":"MOBIITI:Quay:79329","name":"Moulin Ragot","parent_station":"MOBIITI:StopPlace:53866","wheelchair_boarding":"available"},"type":"Feature"},{"geometry":{"coordinates":[-1.180448,46.169662],"type":"Point"},"properties":{"description":"","id":"MOBIITI:StopPlace:54053","name":"Résistance","wheelchair_boarding":"unknown"},"type":"Feature"},{"geometry":{"coordinates":[-1.150416,46.186527],"type":"Point"},"properties":{"code":"2075","description":"[ZoActLg] ASpln","id":"MOBIITI:Quay:80118","name":"Zone d'Activités","parent_station":"MOBIITI:StopPlace:54344","wheelchair_boarding":"available"},"type":"Feature"},{"geometry":{"coordinates":[-0.976534,46.158669],"type":"Point"},"properties":{"code":"6416","description":"","id":"MOBIITI:Quay:79587","name":"Val Pastour","parent_station":"MOBIITI:StopPlace:53996","wheelchair_boarding":"unknown"},"type":"Feature"},{"geometry":{"coordinates":[-1.158847,46.170837],"type":"Point"},"properties":{"code":"1419","description":"[TrompPV] Abri","id":"MOBIITI:Quay:79335","name":"La Trompette","parent_station":"MOBIITI:StopPlace:53869","wheelchair_boarding":"not available"},"type":"Feature"},{"geometry":{"coordinates":[-1.124204,46.167412],"type":"Point"},"properties":{"description":"","id":"MOBIITI:StopPlace:54140","name":"André Garnerin","wheelchair_boarding":"unknown"},"type":"Feature"},{"geometry":{"coordinates":[-1.163822,46.209305],"type":"Point"},"properties":{"code":"2521","description":"[MaiNiPV] Abri","id":"MOBIITI:Quay:79327","name":"Mairie de Nieul-sur-Mer","parent_station":"MOBIITI:StopPlace:53865","wheelchair_boarding":"available"},"type":"Feature"},{"geometry":{"coordinates":[-1.153774,46.161972],"type":"Point"},"properties":{"code":"1061","description":"[PdV_N] Quai N","id":"MOBIITI:Quay:95273","name":"Place de Verdun","parent_station":"MOBIITI:StopPlace:53831","wheelchair_boarding":"not available"},"type":"Feature"},{"geometry":{"coordinates":[-1.097487,46.131199],"type":"Point"},"properties":{"description":"","id":"MOBIITI:StopPlace:53785","name":"Belle Aire","wheelchair_boarding":"unknown"},"type":"Feature"},{"geometry":{"coordinates":[-1.171549,46.172386],"type":"Point"},"properties":{"description":"","id":"MOBIITI:StopPlace:54099","name":"Collège Jean Guiton","wheelchair_boarding":"unknown"},"type":"Feature"},{"geometry":{"coordinates":[-1.185026,46.157089],"type":"Point"},"properties":{"description":"","id":"MOBIITI:StopPlace:54593","name":"Savoie","wheelchair_boarding":"available"},"type":"Feature"},{"geometry":{"coordinates":[-1.140694,46.182602],"type":"Point"},"properties":{"code":"2051","description":"","id":"MOBIITI:Quay:79398","name":"L'Ebeaupin","parent_station":"MOBIITI:StopPlace:53903","wheelchair_boarding":"unknown"},"type":"Feature"},{"geometry":{"coordinates":[-1.121113,46.141514],"type":"Point"},"properties":{"description":"","id":"MOBIITI:StopPlace:54015","name":"Cottes Mailles","wheelchair_boarding":"unknown"},"type":"Feature"},{"geometry":{"coordinates":[-1.079234,46.054722],"type":"Point"},"properties":{"description":"","id":"MOBIITI:StopPlace:54080","name":"Dulin","wheelchair_boarding":"not available"},"type":"Feature"},{"geometry":{"coordinates":[-1.126579,46.161026],"type":"Point"},"properties":{"description":"","id":"MOBIITI:StopPlace:54392","name":"LEP Rompsay","wheelchair_boarding":"unknown"},"type":"Feature"},{"geometry":{"coordinates":[-0.932723,46.153465],"type":"Point"},"properties":{"code":"6403","description":"","id":"MOBIITI:Quay:79965","name":"La Martinière","parent_station":"MOBIITI:StopPlace:54210","wheelchair_boarding":"unknown"},"type":"Feature"},{"geometry":{"coordinates":[-1.126647,46.142967],"type":"Point"},"properties":{"code":"8056","description":"[PRSVeJa] AScln","id":"MOBIITI:Quay:105362","name":"P+R Simone Veil","parent_station":"MOBIITI:StopPlace:64954","wheelchair_boarding":"available"},"type":"Feature"},{"geometry":{"coordinates":[-0.965191,46.192287],"type":"Point"},"properties":{"description":"","id":"MOBIITI:StopPlace:53967","name":"Mairie de Vérines","wheelchair_boarding":"unknown"},"type":"Feature"},{"geometry":{"coordinates":[-1.175433,46.161167],"type":"Point"},"properties":{"code":"1426","description":"[PtJouPe] Abri","id":"MOBIITI:Quay:80430","name":"Point du Jour","parent_station":"MOBIITI:StopPlace:54599","wheelchair_boarding":"available"},"type":"Feature"},{"geometry":{"coordinates":[-1.093127,46.084084],"type":"Point"},"properties":{"code":"9027","description":"[SableCh]","id":"MOBIITI:Quay:79752","name":"Les Sables","parent_station":"MOBIITI:StopPlace:54085","wheelchair_boarding":"not available"},"type":"Feature"},{"geometry":{"coordinates":[-1.136083,46.155025],"type":"Point"},"properties":{"code":"1719","description":"","id":"MOBIITI:Quay:79537","name":"Lycée Valin","parent_station":"MOBIITI:StopPlace:53971","wheelchair_boarding":"unknown"},"type":"Feature"},{"geometry":{"coordinates":[-1.185999,46.187679],"type":"Point"},"properties":{"code":"2419","description":"","id":"MOBIITI:Quay:79784","name":"Place des Poètes","parent_station":"MOBIITI:StopPlace:54105","wheelchair_boarding":"unknown"},"type":"Feature"},{"geometry":{"coordinates":[-1.116049,46.190228],"type":"Point"},"properties":{"code":"3047","description":"[GraChPV] Abri","id":"MOBIITI:Quay:79443","name":"Les Grands Champs","parent_station":"MOBIITI:StopPlace:53925","wheelchair_boarding":"available"},"type":"Feature"},{"geometry":{"coordinates":[-1.104661,46.170544],"type":"Point"},"properties":{"code":"5033","description":"[LPlatCB] AScen","id":"MOBIITI:Quay:80223","name":"Les Platanes","parent_station":"MOBIITI:StopPlace:54433","wheelchair_boarding":"not available"},"type":"Feature"},{"geometry":{"coordinates":[-1.17554,46.190853],"type":"Point"},"properties":{"description":"","id":"MOBIITI:StopPlace:54101","name":"Fief Cotteret","wheelchair_boarding":"unknown"},"type":"Feature"},{"geometry":{"coordinates":[-1.107338,46.171326],"type":"Point"},"properties":{"code":"5026","description":"","id":"MOBIITI:Quay:79857","name":"Les Charmes","parent_station":"MOBIITI:StopPlace:54144","wheelchair_boarding":"unknown"},"type":"Feature"},{"geometry":{"coordinates":[-1.044179,46.131844],"type":"Point"},"properties":{"code":"7201","description":"","id":"MOBIITI:Quay:80010","name":"Chassagné","parent_station":"MOBIITI:StopPlace:54251","wheelchair_boarding":"unknown"},"type":"Feature"},{"geometry":{"coordinates":[-1.160018,46.211655],"type":"Point"},"properties":{"description":"","id":"MOBIITI:StopPlace:54108","name":"Val Hureau","wheelchair_boarding":"unknown"},"type":"Feature"},{"geometry":{"coordinates":[-1.096191,46.161575],"type":"Point"},"properties":{"description":"","id":"MOBIITI:StopPlace:53978","name":"Passy","wheelchair_boarding":"unknown"},"type":"Feature"},{"geometry":{"coordinates":[-1.17778,46.161484],"type":"Point"},"properties":{"code":"1234","description":"[AEpauPe] AScen","id":"MOBIITI:Quay:80392","name":"Annette Epaud","parent_station":"MOBIITI:StopPlace:54579","wheelchair_boarding":"available"},"type":"Feature"},{"geometry":{"coordinates":[-1.103816,46.1707],"type":"Point"},"properties":{"code":"5034","description":"[LPlatDo] AScen","id":"MOBIITI:Quay:80222","name":"Les Platanes","parent_station":"MOBIITI:StopPlace:54433","wheelchair_boarding":"not available"},"type":"Feature"},{"geometry":{"coordinates":[-1.018006,46.190674],"type":"Point"},"properties":{"code":"4406","description":"","id":"MOBIITI:Quay:79920","name":"La Chevalerie","parent_station":"MOBIITI:StopPlace:54180","wheelchair_boarding":"unknown"},"type":"Feature"},{"geometry":{"coordinates":[-1.15895,46.18668],"type":"Point"},"properties":{"code":"2065","description":"[VannePV] Abri","id":"MOBIITI:Quay:79370","name":"Les Vanneaux","parent_station":"MOBIITI:StopPlace:53887","wheelchair_boarding":"available"},"type":"Feature"},{"geometry":{"coordinates":[-1.140291,46.188],"type":"Point"},"properties":{"code":"2018","description":"","id":"MOBIITI:Quay:79397","name":"Château d'Huré","parent_station":"MOBIITI:StopPlace:53902","wheelchair_boarding":"unknown"},"type":"Feature"},{"geometry":{"coordinates":[-1.118108,46.133881],"type":"Point"},"properties":{"code":"8055","description":"","id":"MOBIITI:Quay:95727","name":"Jules Ferry","parent_station":"MOBIITI:StopPlace:53788","wheelchair_boarding":"unknown"},"type":"Feature"},{"geometry":{"coordinates":[-1.185158,46.168064],"type":"Point"},"properties":{"code":"1304","description":"[GirauMr] AScen","id":"MOBIITI:Quay:79709","name":"B. Giraudeau - Archives","parent_station":"MOBIITI:StopPlace:54062","wheelchair_boarding":"available"},"type":"Feature"},{"geometry":{"coordinates":[-1.098434,46.185555],"type":"Point"},"properties":{"code":"3030","description":"","id":"MOBIITI:Quay:79830","name":"Grammont","parent_station":"MOBIITI:StopPlace:54130","wheelchair_boarding":"unknown"},"type":"Feature"},{"geometry":{"coordinates":[-1.147736,46.189842],"type":"Point"},"properties":{"code":"2058","description":"[GrffiBo] Abri","id":"MOBIITI:Quay:80121","name":"Les Greffières","parent_station":"MOBIITI:StopPlace:54346","wheelchair_boarding":"available"},"type":"Feature"},{"geometry":{"coordinates":[-1.137184,46.171551],"type":"Point"},"properties":{"description":"","id":"MOBIITI:StopPlace:53942","name":"Dufresse","wheelchair_boarding":"available"},"type":"Feature"},{"geometry":{"coordinates":[-1.190726,46.186668],"type":"Point"},"properties":{"code":"2421","description":"","id":"MOBIITI:Quay:79305","name":"Victor Hugo","parent_station":"MOBIITI:StopPlace:53851","wheelchair_boarding":"unknown"},"type":"Feature"},{"geometry":{"coordinates":[-1.103723,46.152161],"type":"Point"},"properties":{"description":"","id":"MOBIITI:StopPlace:54155","name":"La Moulinette","wheelchair_boarding":"available"},"type":"Feature"},{"geometry":{"coordinates":[-1.018006,46.190674],"type":"Point"},"properties":{"description":"","id":"MOBIITI:StopPlace:54180","name":"La Chevalerie","wheelchair_boarding":"unknown"},"type":"Feature"},{"geometry":{"coordinates":[-1.026103,46.117374],"type":"Point"},"properties":{"description":"","id":"MOBIITI:StopPlace:54317","name":"L'Aumonerie","wheelchair_boarding":"unknown"},"type":"Feature"},{"geometry":{"coordinates":[-1.128964,46.234303],"type":"Point"},"properties":{"code":"2711","description":"","id":"MOBIITI:Quay:79379","name":"Nantilly Beauvoirs","parent_station":"MOBIITI:StopPlace:53893","wheelchair_boarding":"unknown"},"type":"Feature"},{"geometry":{"coordinates":[-1.13832,46.143974],"type":"Point"},"properties":{"description":"","id":"MOBIITI:StopPlace:54019","name":"Les Peupliers","wheelchair_boarding":"unknown"},"type":"Feature"},{"geometry":{"coordinates":[-1.124643,46.180565],"type":"Point"},"properties":{"code":"3049","description":"","id":"MOBIITI:Quay:79492","name":"Les Rouillons","parent_station":"MOBIITI:StopPlace:53948","wheelchair_boarding":"unknown"},"type":"Feature"},{"geometry":{"coordinates":[-1.068752,46.186214],"type":"Point"},"properties":{"code":"4018","description":"","id":"MOBIITI:Quay:79471","name":"Garenne","parent_station":"MOBIITI:StopPlace:53939","wheelchair_boarding":"unknown"},"type":"Feature"},{"geometry":{"coordinates":[-1.174903,46.201664],"type":"Point"},"properties":{"code":"2503","description":"","id":"MOBIITI:Quay:79790","name":"Grand Large","parent_station":"MOBIITI:StopPlace:54109","wheelchair_boarding":"unknown"},"type":"Feature"},{"geometry":{"coordinates":[-1.102011,46.164886],"type":"Point"},"properties":{"code":"5063","description":"[VaucaDB] Abri","id":"MOBIITI:Quay:79547","name":"Vaucanson","parent_station":"MOBIITI:StopPlace:53976","wheelchair_boarding":"available"},"type":"Feature"},{"geometry":{"coordinates":[-1.097069,46.154446],"type":"Point"},"properties":{"code":"5053","description":"[PoLouMr] AScen","id":"MOBIITI:Quay:80456","name":"Port Louis","parent_station":"MOBIITI:StopPlace:54614","wheelchair_boarding":"not available"},"type":"Feature"},{"geometry":{"coordinates":[-1.165819,46.186241],"type":"Point"},"properties":{"code":"2040","description":"","id":"MOBIITI:Quay:79801","name":"La Plouzière","parent_station":"MOBIITI:StopPlace:54114","wheelchair_boarding":"unknown"},"type":"Feature"},{"geometry":{"coordinates":[-1.153105,46.176647],"type":"Point"},"properties":{"code":"2056","description":"","id":"MOBIITI:Quay:79302","name":"Les Gonthières","parent_station":"MOBIITI:StopPlace:53849","wheelchair_boarding":"unknown"},"type":"Feature"},{"geometry":{"coordinates":[-1.14394,46.168495],"type":"Point"},"properties":{"description":"","id":"MOBIITI:StopPlace:53944","name":"Marius Lacroix","wheelchair_boarding":"available"},"type":"Feature"},{"geometry":{"coordinates":[-1.17198,46.204586],"type":"Point"},"properties":{"code":"2527","description":"[SaPNiPV] Abri","id":"MOBIITI:Quay:79334","name":"Salle Polyvalente de Nieul","parent_station":"MOBIITI:StopPlace:53868","wheelchair_boarding":"available"},"type":"Feature"},{"geometry":{"coordinates":[-1.047361,46.044933],"type":"Point"},"properties":{"description":"","id":"MOBIITI:StopPlace:54118","name":"La Chapelle","wheelchair_boarding":"unknown"},"type":"Feature"},{"geometry":{"coordinates":[-1.081162,46.079144],"type":"Point"},"properties":{"code":"9021","description":"","id":"MOBIITI:Quay:79649","name":"La Petite Borde","parent_station":"MOBIITI:StopPlace:54030","wheelchair_boarding":"unknown"},"type":"Feature"},{"geometry":{"coordinates":[-1.172588,46.182091],"type":"Point"},"properties":{"description":"","id":"MOBIITI:StopPlace:53848","name":"Le Bonnodeau","wheelchair_boarding":"unknown"},"type":"Feature"},{"geometry":{"coordinates":[-1.122838,46.129604],"type":"Point"},"properties":{"code":"8032","description":"[EmbruLP] Abri","id":"MOBIITI:Quay:79211","name":"Les Embruns","parent_station":"MOBIITI:StopPlace:53799","wheelchair_boarding":"available"},"type":"Feature"},{"geometry":{"coordinates":[-1.030424,46.202045],"type":"Point"},"properties":{"description":"","id":"MOBIITI:StopPlace:53958","name":"Usseau Ecole","wheelchair_boarding":"unknown"},"type":"Feature"},{"geometry":{"coordinates":[-1.049349,46.117081],"type":"Point"},"properties":{"code":"7610","description":"","id":"MOBIITI:Quay:80086","name":"La Richarderie","parent_station":"MOBIITI:StopPlace:54319","wheelchair_boarding":"unknown"},"type":"Feature"},{"geometry":{"coordinates":[-1.172116,46.182053],"type":"Point"},"properties":{"code":"2047","description":"","id":"MOBIITI:Quay:79300","name":"Le Bonnodeau","parent_station":"MOBIITI:StopPlace:53848","wheelchair_boarding":"unknown"},"type":"Feature"},{"geometry":{"coordinates":[-1.006084,46.123898],"type":"Point"},"properties":{"code":"7205","description":"","id":"MOBIITI:Quay:79606","name":"Fief Jaulin","parent_station":"MOBIITI:StopPlace:54007","wheelchair_boarding":"unknown"},"type":"Feature"},{"geometry":{"coordinates":[-1.163488,46.172176],"type":"Point"},"properties":{"code":"2068","description":"[PaLaqPV] Abri","id":"MOBIITI:Quay:79297","name":"Pas des Laquais","parent_station":"MOBIITI:StopPlace:53846","wheelchair_boarding":"not available"},"type":"Feature"},{"geometry":{"coordinates":[-1.133801,46.161343],"type":"Point"},"properties":{"description":"","id":"MOBIITI:StopPlace:54587","name":"Saint-Saëns","wheelchair_boarding":"unknown"},"type":"Feature"},{"geometry":{"coordinates":[-1.150939,46.186192],"type":"Point"},"properties":{"description":"","id":"MOBIITI:StopPlace:54344","name":"Zone d'Activités","wheelchair_boarding":"available"},"type":"Feature"},{"geometry":{"coordinates":[-1.167229,46.180359],"type":"Point"},"properties":{"description":"","id":"MOBIITI:StopPlace:53841","name":"Fief Rose","wheelchair_boarding":"not available"},"type":"Feature"},{"geometry":{"coordinates":[-1.099142,46.181522],"type":"Point"},"properties":{"code":"3016","description":"","id":"MOBIITI:Quay:79493","name":"Belle Etoile","parent_station":"MOBIITI:StopPlace:53949","wheelchair_boarding":"unknown"},"type":"Feature"},{"geometry":{"coordinates":[-1.121136,46.141586],"type":"Point"},"properties":{"code":"8020","description":"","id":"MOBIITI:Quay:79620","name":"Cottes Mailles","parent_station":"MOBIITI:StopPlace:54015","wheelchair_boarding":"unknown"},"type":"Feature"},{"geometry":{"coordinates":[-1.137138,46.171516],"type":"Point"},"properties":{"code":"1512","description":"[DufreDo] MDO","id":"MOBIITI:Quay:79480","name":"Dufresse","parent_station":"MOBIITI:StopPlace:53942","wheelchair_boarding":"available"},"type":"Feature"},{"geometry":{"coordinates":[-1.198069,46.164608],"type":"Point"},"properties":{"code":"1114","description":"[JHenrAy] Abri","id":"MOBIITI:Quay:79232","name":"Jacques Henry","parent_station":"MOBIITI:StopPlace:53811","wheelchair_boarding":"not available"},"type":"Feature"},{"geometry":{"coordinates":[-1.144306,46.189751],"type":"Point"},"properties":{"code":"2021","description":"","id":"MOBIITI:Quay:79394","name":"Fief des Greffières","parent_station":"MOBIITI:StopPlace:53901","wheelchair_boarding":"unknown"},"type":"Feature"},{"geometry":{"coordinates":[-0.967958,46.193768],"type":"Point"},"properties":{"description":"","id":"MOBIITI:StopPlace:53964","name":"Eglise de Vérines","wheelchair_boarding":"unknown"},"type":"Feature"},{"geometry":{"coordinates":[-1.089917,46.150173],"type":"Point"},"properties":{"code":"5037","description":"","id":"MOBIITI:Quay:79892","name":"Les Tourterelles","parent_station":"MOBIITI:StopPlace:54163","wheelchair_boarding":"unknown"},"type":"Feature"},{"geometry":{"coordinates":[-1.181047,46.167633],"type":"Point"},"properties":{"code":"1316","description":"[KenneMr] Abri","id":"MOBIITI:Quay:79697","name":"Kennedy","parent_station":"MOBIITI:StopPlace:54055","wheelchair_boarding":"available"},"type":"Feature"},{"geometry":{"coordinates":[-1.138605,46.161263],"type":"Point"},"properties":{"code":"1612","description":"[LSaunCB] AScen","id":"MOBIITI:Quay:80403","name":"Les Sauniers","parent_station":"MOBIITI:StopPlace:54586","wheelchair_boarding":"not available"},"type":"Feature"},{"geometry":{"coordinates":[-0.941759,46.147766],"type":"Point"},"properties":{"code":"6606","description":"","id":"MOBIITI:Quay:79956","name":"La Mazurie","parent_station":"MOBIITI:StopPlace:54205","wheelchair_boarding":"unknown"},"type":"Feature"},{"geometry":{"coordinates":[-1.190218,46.165401],"type":"Point"},"properties":{"description":"","id":"MOBIITI:StopPlace:53807","name":"Vaugouin","wheelchair_boarding":"available"},"type":"Feature"},{"geometry":{"coordinates":[-1.118638,46.132072],"type":"Point"},"properties":{"code":"8008","description":"[BarbeCh] Abri","id":"MOBIITI:Quay:79183","name":"Barbedette","parent_station":"MOBIITI:StopPlace:53786","wheelchair_boarding":"available"},"type":"Feature"},{"geometry":{"coordinates":[-1.15371,46.166031],"type":"Point"},"properties":{"description":"","id":"MOBIITI:StopPlace:53860","name":"Esplanade des Parcs","wheelchair_boarding":"unknown"},"type":"Feature"},{"geometry":{"coordinates":[-1.06482,46.174217],"type":"Point"},"properties":{"code":"4013","description":"","id":"MOBIITI:Quay:79578","name":"Corne Neuve","parent_station":"MOBIITI:StopPlace:53992","wheelchair_boarding":"unknown"},"type":"Feature"},{"geometry":{"coordinates":[-1.129838,46.162968],"type":"Point"},"properties":{"code":"1602","description":"[CimSECB] AScen","id":"MOBIITI:Quay:80410","name":"Cimetière de Saint-Eloi","parent_station":"MOBIITI:StopPlace:54589","wheelchair_boarding":"not available"},"type":"Feature"},{"geometry":{"coordinates":[-1.094463,46.171211],"type":"Point"},"properties":{"code":"4009","description":"[ChaRoDo] Abri","id":"MOBIITI:Quay:79936","name":"Chagnolet Rompsay","parent_station":"MOBIITI:StopPlace:54190","wheelchair_boarding":"not available"},"type":"Feature"},{"geometry":{"coordinates":[-1.023804,46.117538],"type":"Point"},"properties":{"description":"","id":"MOBIITI:StopPlace:54006","name":"Grande Rue","wheelchair_boarding":"unknown"},"type":"Feature"},{"geometry":{"coordinates":[-1.109716,46.176563],"type":"Point"},"properties":{"code":"3013","description":"[BePluBe] ASpln","id":"MOBIITI:Quay:80353","name":"Beaulieu Plus","parent_station":"MOBIITI:StopPlace:54550","wheelchair_boarding":"available"},"type":"Feature"},{"geometry":{"coordinates":[-1.114671,46.107578],"type":"Point"},"properties":{"code":"8405","description":"","id":"MOBIITI:Quay:79727","name":"Gare SNCF d'Angoulins-sur-Mer","parent_station":"MOBIITI:StopPlace:54071","wheelchair_boarding":"unknown"},"type":"Feature"},{"geometry":{"coordinates":[-1.108783,46.168842],"type":"Point"},"properties":{"code":"5035","description":"[TausiCB] Abri","id":"MOBIITI:Quay:79855","name":"Les Tausières","parent_station":"MOBIITI:StopPlace:54143","wheelchair_boarding":"not available"},"type":"Feature"},{"geometry":{"coordinates":[-1.044475,46.184528],"type":"Point"},"properties":{"code":"4410","description":"","id":"MOBIITI:Quay:79452","name":"Les Fortines","parent_station":"MOBIITI:StopPlace:53930","wheelchair_boarding":"unknown"},"type":"Feature"},{"geometry":{"coordinates":[-1.125218,46.136055],"type":"Point"},"properties":{"code":"8001","description":"","id":"MOBIITI:Quay:79199","name":"Alstom","parent_station":"MOBIITI:StopPlace:53794","wheelchair_boarding":"unknown"},"type":"Feature"},{"geometry":{"coordinates":[-1.158866,46.164173],"type":"Point"},"properties":{"code":"1415","description":"[JourdPV] AScen","id":"MOBIITI:Quay:79338","name":"Jourdan","parent_station":"MOBIITI:StopPlace:53870","wheelchair_boarding":"available"},"type":"Feature"},{"geometry":{"coordinates":[-1.145441,46.158428],"type":"Point"},"properties":{"code":"1025","description":"[HopitMr] Abri","id":"MOBIITI:Quay:79272","name":"Hôpital","parent_station":"MOBIITI:StopPlace:53834","wheelchair_boarding":"available"},"type":"Feature"},{"geometry":{"coordinates":[-1.172047,46.16074],"type":"Point"},"properties":{"code":"1416","description":"[GenetCB] Abri","id":"MOBIITI:Quay:80423","name":"La Genette","parent_station":"MOBIITI:StopPlace:54596","wheelchair_boarding":"available"},"type":"Feature"},{"geometry":{"coordinates":[-1.111337,46.106068],"type":"Point"},"properties":{"code":"8415","description":"","id":"MOBIITI:Quay:79737","name":"Mairie d'Angoulins","parent_station":"MOBIITI:StopPlace:54077","wheelchair_boarding":"unknown"},"type":"Feature"},{"geometry":{"coordinates":[-1.157519,46.18755],"type":"Point"},"properties":{"description":"","id":"MOBIITI:StopPlace:54097","name":"Fief Nouveau","wheelchair_boarding":"unknown"},"type":"Feature"},{"geometry":{"coordinates":[-1.153619,46.161961],"type":"Point"},"properties":{"code":"1063","description":"[PdV_P] Quai P","id":"MOBIITI:Quay:95268","name":"Place de Verdun","parent_station":"MOBIITI:StopPlace:53831","wheelchair_boarding":"not available"},"type":"Feature"},{"geometry":{"coordinates":[-1.144128,46.148827],"type":"Point"},"properties":{"description":"","id":"MOBIITI:StopPlace:53791","name":"Place des Britanniques","wheelchair_boarding":"available"},"type":"Feature"},{"geometry":{"coordinates":[-1.177333,46.170128],"type":"Point"},"properties":{"description":"","id":"MOBIITI:StopPlace:54375","name":"Ludothèque","wheelchair_boarding":"available"},"type":"Feature"},{"geometry":{"coordinates":[-1.038438,46.121323],"type":"Point"},"properties":{"description":"","id":"MOBIITI:StopPlace:54410","name":"ZAC de l'Aubépin","wheelchair_boarding":"unknown"},"type":"Feature"},{"geometry":{"coordinates":[-1.121438,46.132568],"type":"Point"},"properties":{"code":"8046","description":"[PGPreLP] Abri","id":"MOBIITI:Quay:79222","name":"Place des Grands Prés","parent_station":"MOBIITI:StopPlace:53804","wheelchair_boarding":"available"},"type":"Feature"},{"geometry":{"coordinates":[-1.021793,46.162052],"type":"Point"},"properties":{"code":"6201","description":"","id":"MOBIITI:Quay:79580","name":"Les Gacheteries","parent_station":"MOBIITI:StopPlace:53993","wheelchair_boarding":"unknown"},"type":"Feature"},{"geometry":{"coordinates":[-0.990207,46.210365],"type":"Point"},"properties":{"code":"4612","description":"","id":"MOBIITI:Quay:79942","name":"Villa Laurius","parent_station":"MOBIITI:StopPlace:54193","wheelchair_boarding":"unknown"},"type":"Feature"},{"geometry":{"coordinates":[-1.159688,46.143978],"type":"Point"},"properties":{"code":"1823","description":"[LyHotUn] NON","id":"MOBIITI:Quay:80311","name":"Lycée Hôtelier","parent_station":"MOBIITI:StopPlace:54517","wheelchair_boarding":"not available"},"type":"Feature"},{"geometry":{"coordinates":[-1.169662,46.168926],"type":"Point"},"properties":{"description":"","id":"MOBIITI:StopPlace:54054","name":"La Chope","wheelchair_boarding":"available"},"type":"Feature"},{"geometry":{"coordinates":[-1.130757,46.17807],"type":"Point"},"properties":{"code":"3027","description":"","id":"MOBIITI:Quay:79497","name":"Fief de la Mare","parent_station":"MOBIITI:StopPlace:53951","wheelchair_boarding":"unknown"},"type":"Feature"},{"geometry":{"coordinates":[-1.124638,46.172398],"type":"Point"},"properties":{"code":"1502","description":"[BgognMn] ASpln","id":"MOBIITI:Quay:80338","name":"Bourgogne","parent_station":"MOBIITI:StopPlace:54541","wheelchair_boarding":"not available"},"type":"Feature"},{"geometry":{"coordinates":[-1.146505,46.153515],"type":"Point"},"properties":{"code":"1016","description":"De Gaulle","id":"MOBIITI:Quay:79592","name":"Gare La Rochelle (De Gaulle)","parent_station":"MOBIITI:StopPlace:53999","wheelchair_boarding":"available"},"type":"Feature"},{"geometry":{"coordinates":[-1.006138,46.124065],"type":"Point"},"properties":{"description":"","id":"MOBIITI:StopPlace:54007","name":"Fief Jaulin","wheelchair_boarding":"unknown"},"type":"Feature"},{"geometry":{"coordinates":[-1.10328,46.152168],"type":"Point"},"properties":{"code":"5022","description":"[MlintSR] AScen","id":"MOBIITI:Quay:79876","name":"La Moulinette","parent_station":"MOBIITI:StopPlace:54155","wheelchair_boarding":"available"},"type":"Feature"},{"geometry":{"coordinates":[-1.122307,46.127232],"type":"Point"},"properties":{"description":"","id":"MOBIITI:StopPlace:53802","name":"Marais Doux","wheelchair_boarding":"unknown"},"type":"Feature"},{"geometry":{"coordinates":[-1.10248,46.203087],"type":"Point"},"properties":{"code":"3416","description":"[SFeSXSX] AScen","id":"MOBIITI:Quay:79436","name":"Salle des Fêtes de Saint-Xandre","parent_station":"MOBIITI:StopPlace:53921","wheelchair_boarding":"available"},"type":"Feature"},{"geometry":{"coordinates":[-1.149569,46.158997],"type":"Point"},"properties":{"code":"1007","description":"Maubec","id":"MOBIITI:Quay:79278","name":"Dames Blanches (Maubec)","parent_station":"MOBIITI:StopPlace:53837","wheelchair_boarding":"available"},"type":"Feature"},{"geometry":{"coordinates":[-0.970769,46.158344],"type":"Point"},"properties":{"code":"6412","description":"","id":"MOBIITI:Quay:79582","name":"Le Verger","parent_station":"MOBIITI:StopPlace:53994","wheelchair_boarding":"unknown"},"type":"Feature"},{"geometry":{"coordinates":[-1.088461,46.077484],"type":"Point"},"properties":{"code":"9004","description":"[AriBrCh]","id":"MOBIITI:Quay:79768","name":"Aristide Briand","parent_station":"MOBIITI:StopPlace:54093","wheelchair_boarding":"not available"},"type":"Feature"},{"geometry":{"coordinates":[-1.100363,46.162693],"type":"Point"},"properties":{"code":"5000","description":"[ABergDB] AScen","id":"MOBIITI:Quay:79559","name":"Aristide Bergès","parent_station":"MOBIITI:StopPlace:53982","wheelchair_boarding":"available"},"type":"Feature"},{"geometry":{"coordinates":[-1.124075,46.16444],"type":"Point"},"properties":{"code":"1605","description":"[GeranPe] AScen","id":"MOBIITI:Quay:79849","name":"Géraniums","parent_station":"MOBIITI:StopPlace:54139","wheelchair_boarding":"available"},"type":"Feature"},{"geometry":{"coordinates":[-1.14493,46.140076],"type":"Point"},"properties":{"code":"1846","description":"[VtreuLg] Abri","id":"MOBIITI:Quay:79901","name":"Vautreuil","parent_station":"MOBIITI:StopPlace:54170","wheelchair_boarding":"available"},"type":"Feature"},{"geometry":{"coordinates":[-1.142463,46.145153],"type":"Point"},"properties":{"code":"1831","description":"[OctroAy] Abri","id":"MOBIITI:Quay:79195","name":"Octroi","parent_station":"MOBIITI:StopPlace:53792","wheelchair_boarding":"available"},"type":"Feature"},{"geometry":{"coordinates":[-1.092396,46.162224],"type":"Point"},"properties":{"description":"","id":"MOBIITI:StopPlace:53980","name":"La Bourgne","wheelchair_boarding":"unknown"},"type":"Feature"},{"geometry":{"coordinates":[-1.153955,46.162277],"type":"Point"},"properties":{"code":"1034","description":"[PdVH2] Abri","id":"MOBIITI:Quay:79267","name":"Place de Verdun","parent_station":"MOBIITI:StopPlace:53831","wheelchair_boarding":"available"},"type":"Feature"},{"geometry":{"coordinates":[-1.119852,46.173851],"type":"Point"},"properties":{"description":"","id":"MOBIITI:StopPlace:54545","name":"Beaulieu Sud","wheelchair_boarding":"available"},"type":"Feature"},{"geometry":{"coordinates":[-1.141707,46.185104],"type":"Point"},"properties":{"description":"","id":"MOBIITI:StopPlace:53898","name":"La Mariennée","wheelchair_boarding":"unknown"},"type":"Feature"},{"geometry":{"coordinates":[-1.131075,46.155273],"type":"Point"},"properties":{"code":"1724","description":"[PtBroVi] ASpln","id":"MOBIITI:Quay:79545","name":"Petit Brouage","parent_station":"MOBIITI:StopPlace:53975","wheelchair_boarding":"available"},"type":"Feature"},{"geometry":{"coordinates":[-0.947508,46.145435],"type":"Point"},"properties":{"code":"6605","description":"","id":"MOBIITI:Quay:79569","name":"Eglise de Saint Christophe","parent_station":"MOBIITI:StopPlace:53987","wheelchair_boarding":"unknown"},"type":"Feature"},{"geometry":{"coordinates":[-1.108626,46.152634],"type":"Point"},"properties":{"description":"","id":"MOBIITI:StopPlace:54161","name":"Eglise de Périgny","wheelchair_boarding":"available"},"type":"Feature"},{"geometry":{"coordinates":[-1.138388,46.144009],"type":"Point"},"properties":{"code":"1822","description":"[PeuplJa]","id":"MOBIITI:Quay:79627","name":"Les Peupliers","parent_station":"MOBIITI:StopPlace:54019","wheelchair_boarding":"not available"},"type":"Feature"},{"geometry":{"coordinates":[-1.077245,46.057041],"type":"Point"},"properties":{"code":"9709","description":"[PoPunGa]","id":"MOBIITI:Quay:79744","name":"Port Punay","parent_station":"MOBIITI:StopPlace:54081","wheelchair_boarding":"not available"},"type":"Feature"},{"geometry":{"coordinates":[-1.208607,46.150269],"type":"Point"},"properties":{"description":"","id":"MOBIITI:StopPlace:54610","name":"Agrocéan","wheelchair_boarding":"not available"},"type":"Feature"},{"geometry":{"coordinates":[-1.143913,46.158195],"type":"Point"},"properties":{"code":"1023","description":"[HopitAy] Abri","id":"MOBIITI:Quay:79273","name":"Hôpital","parent_station":"MOBIITI:StopPlace:53834","wheelchair_boarding":"available"},"type":"Feature"},{"geometry":{"coordinates":[-1.153426,46.190147],"type":"Point"},"properties":{"code":"2066","description":"","id":"MOBIITI:Quay:79778","name":"Mairie de Lagord","parent_station":"MOBIITI:StopPlace:54100","wheelchair_boarding":"unknown"},"type":"Feature"},{"geometry":{"coordinates":[-1.156119,46.159176],"type":"Point"},"properties":{"code":"1002","description":"[BanFrLg] Abri","id":"MOBIITI:Quay:79280","name":"Banque de France","parent_station":"MOBIITI:StopPlace:53838","wheelchair_boarding":"available"},"type":"Feature"},{"geometry":{"coordinates":[-1.186044,46.16531],"type":"Point"},"properties":{"code":"1344","description":"[RossiLP] Abri","id":"MOBIITI:Quay:79261","name":"Rossignolette","parent_station":"MOBIITI:StopPlace:53829","wheelchair_boarding":"available"},"type":"Feature"},{"geometry":{"coordinates":[-1.156205,46.193714],"type":"Point"},"properties":{"code":"2022","description":"[FJarrNi] AScen","id":"MOBIITI:Quay:79355","name":"Fief des Jarries","parent_station":"MOBIITI:StopPlace:53880","wheelchair_boarding":"available"},"type":"Feature"},{"geometry":{"coordinates":[-1.072816,46.124397],"type":"Point"},"properties":{"code":"7617","description":"","id":"MOBIITI:Quay:79670","name":"Pierre de Coubertin","parent_station":"MOBIITI:StopPlace:54043","wheelchair_boarding":"unknown"},"type":"Feature"},{"geometry":{"coordinates":[-1.177691,46.15662],"type":"Point"},"properties":{"code":"1229","description":"[PrvcePV] Abri","id":"MOBIITI:Quay:80134","name":"Provence","parent_station":"MOBIITI:StopPlace:54359","wheelchair_boarding":"not available"},"type":"Feature"},{"geometry":{"coordinates":[-1.023036,46.190022],"type":"Point"},"properties":{"description":"","id":"MOBIITI:StopPlace:53961","name":"Les Guillaudes","wheelchair_boarding":"unknown"},"type":"Feature"},{"geometry":{"coordinates":[-1.012672,46.187408],"type":"Point"},"properties":{"code":"4418","description":"","id":"MOBIITI:Quay:79519","name":"Mairie de Sainte Soulle","parent_station":"MOBIITI:StopPlace:53962","wheelchair_boarding":"unknown"},"type":"Feature"},{"geometry":{"coordinates":[-1.023176,46.170578],"type":"Point"},"properties":{"description":"","id":"MOBIITI:StopPlace:53986","name":"La Chartrie","wheelchair_boarding":"unknown"},"type":"Feature"},{"geometry":{"coordinates":[-1.108977,46.168659],"type":"Point"},"properties":{"code":"5036","description":"[TausiDo] AScen","id":"MOBIITI:Quay:79856","name":"Les Tausières","parent_station":"MOBIITI:StopPlace:54143","wheelchair_boarding":"not available"},"type":"Feature"},{"geometry":{"coordinates":[-1.103469,46.160618],"type":"Point"},"properties":{"code":"5050","description":"[PauLaPe] AScen","id":"MOBIITI:Quay:80446","name":"Paul Langevin","parent_station":"MOBIITI:StopPlace:54608","wheelchair_boarding":"available"},"type":"Feature"},{"geometry":{"coordinates":[-0.923322,46.131886],"type":"Point"},"properties":{"code":"6607","description":"","id":"MOBIITI:Quay:79960","name":"La Panonnière","parent_station":"MOBIITI:StopPlace:54207","wheelchair_boarding":"unknown"},"type":"Feature"},{"geometry":{"coordinates":[-1.175552,46.165195],"type":"Point"},"properties":{"code":"1311","description":"[FromeEx] AScen","id":"MOBIITI:Quay:80152","name":"Fromentin","parent_station":"MOBIITI:StopPlace:54374","wheelchair_boarding":"available"},"type":"Feature"},{"geometry":{"coordinates":[-0.997941,46.074226],"type":"Point"},"properties":{"code":"9608","description":"","id":"MOBIITI:Quay:80050","name":"Stade de Thairé","parent_station":"MOBIITI:StopPlace:54284","wheelchair_boarding":"unknown"},"type":"Feature"},{"geometry":{"coordinates":[-1.052025,46.188957],"type":"Point"},"properties":{"code":"4422","description":"","id":"MOBIITI:Quay:79450","name":"Pont de la Fumate","parent_station":"MOBIITI:StopPlace:53929","wheelchair_boarding":"unknown"},"type":"Feature"},{"geometry":{"coordinates":[-1.106722,46.157562],"type":"Point"},"properties":{"code":"5015","description":"[JoCurZI] AScen","id":"MOBIITI:Quay:79557","name":"Joliot-Curie","parent_station":"MOBIITI:StopPlace:53981","wheelchair_boarding":"not available"},"type":"Feature"},{"geometry":{"coordinates":[-1.116066,46.150745],"type":"Point"},"properties":{"code":"1710","description":"[FabrePe] AScen","id":"MOBIITI:Quay:79684","name":"Fabre d'Eglantine","parent_station":"MOBIITI:StopPlace:54050","wheelchair_boarding":"not available"},"type":"Feature"},{"geometry":{"coordinates":[-1.083847,46.187473],"type":"Point"},"properties":{"description":"","id":"MOBIITI:StopPlace:53937","name":"Les Brandes","wheelchair_boarding":"unknown"},"type":"Feature"},{"geometry":{"coordinates":[-1.200722,46.164448],"type":"Point"},"properties":{"code":"1122","description":"[LSporLP] ASpln","id":"MOBIITI:Quay:79246","name":"Laleu Sports","parent_station":"MOBIITI:StopPlace:53820","wheelchair_boarding":"available"},"type":"Feature"},{"geometry":{"coordinates":[-1.14769,46.178761],"type":"Point"},"properties":{"description":"","id":"MOBIITI:StopPlace:53900","name":"Blériot","wheelchair_boarding":"unknown"},"type":"Feature"},{"geometry":{"coordinates":[-1.176605,46.202446],"type":"Point"},"properties":{"code":"2502","description":"","id":"MOBIITI:Quay:79791","name":"Grand Large","parent_station":"MOBIITI:StopPlace:54109","wheelchair_boarding":"unknown"},"type":"Feature"},{"geometry":{"coordinates":[-1.144367,46.189781],"type":"Point"},"properties":{"description":"","id":"MOBIITI:StopPlace:53901","name":"Fief des Greffières","wheelchair_boarding":"unknown"},"type":"Feature"},{"geometry":{"coordinates":[-1.187016,46.193222],"type":"Point"},"properties":{"code":"2400","description":"","id":"MOBIITI:Quay:79307","name":"Bourg de L'Houmeau","parent_station":"MOBIITI:StopPlace:53852","wheelchair_boarding":"unknown"},"type":"Feature"},{"geometry":{"coordinates":[-1.102325,46.20203],"type":"Point"},"properties":{"code":"3420","description":"","id":"MOBIITI:Quay:79435","name":"Salle des Fêtes de Saint-Xandre","parent_station":"MOBIITI:StopPlace:53921","wheelchair_boarding":"unknown"},"type":"Feature"},{"geometry":{"coordinates":[-1.124425,46.170849],"type":"Point"},"properties":{"code":"1616","description":"[MJustMn] Abri","id":"MOBIITI:Quay:79501","name":"Moulin des Justices","parent_station":"MOBIITI:StopPlace:53953","wheelchair_boarding":"available"},"type":"Feature"},{"geometry":{"coordinates":[-1.132525,46.171227],"type":"Point"},"properties":{"description":"","id":"MOBIITI:StopPlace:54125","name":"Collège de Beauregard","wheelchair_boarding":"not available"},"type":"Feature"},{"geometry":{"coordinates":[-1.127616,46.133831],"type":"Point"},"properties":{"code":"8047","description":"","id":"MOBIITI:Quay:79721","name":"Place du Pourquoi Pas","parent_station":"MOBIITI:StopPlace:54068","wheelchair_boarding":"unknown"},"type":"Feature"},{"geometry":{"coordinates":[-1.118024,46.134052],"type":"Point"},"properties":{"description":"","id":"MOBIITI:StopPlace:53788","name":"Jules Ferry","wheelchair_boarding":"unknown"},"type":"Feature"},{"geometry":{"coordinates":[-1.074042,46.082417],"type":"Point"},"properties":{"code":"9501","description":"","id":"MOBIITI:Quay:79804","name":"Loin du Bruit","parent_station":"MOBIITI:StopPlace:54115","wheelchair_boarding":"unknown"},"type":"Feature"},{"geometry":{"coordinates":[-0.947407,46.145508],"type":"Point"},"properties":{"code":"6604","description":"","id":"MOBIITI:Quay:79568","name":"Eglise de Saint Christophe","parent_station":"MOBIITI:StopPlace:53987","wheelchair_boarding":"unknown"},"type":"Feature"},{"geometry":{"coordinates":[-1.160313,46.162674],"type":"Point"},"properties":{"code":"1402","description":"[ClMasMr] Abri","id":"MOBIITI:Quay:79220","name":"Claude Masse","parent_station":"MOBIITI:StopPlace:53803","wheelchair_boarding":"not available"},"type":"Feature"},{"geometry":{"coordinates":[-1.109913,46.206909],"type":"Point"},"properties":{"code":"3405","description":"[RibotPV] Abri","id":"MOBIITI:Quay:79409","name":"La Ribotelière","parent_station":"MOBIITI:StopPlace:53908","wheelchair_boarding":"available"},"type":"Feature"},{"geometry":{"coordinates":[-1.068675,46.149467],"type":"Point"},"properties":{"code":"5403","description":"[NechaSR] AScen","id":"MOBIITI:Quay:79873","name":"Néchalier","parent_station":"MOBIITI:StopPlace:54153","wheelchair_boarding":"available"},"type":"Feature"},{"geometry":{"coordinates":[-1.157959,46.179161],"type":"Point"},"properties":{"code":"2034","description":"","id":"MOBIITI:Quay:80236","name":"Grand Mur","parent_station":"MOBIITI:StopPlace:54445","wheelchair_boarding":"unknown"},"type":"Feature"},{"geometry":{"coordinates":[-1.003281,46.183929],"type":"Point"},"properties":{"code":"1170","description":"","id":"MOBIITI:Quay:79918","name":"Les Frigauderies","parent_station":"MOBIITI:StopPlace:54179","wheelchair_boarding":"unknown"},"type":"Feature"},{"geometry":{"coordinates":[-1.211269,46.163654],"type":"Point"},"properties":{"code":"1110","description":"[DuquePV] AScen","id":"MOBIITI:Quay:79251","name":"Duquesne","parent_station":"MOBIITI:StopPlace:53823","wheelchair_boarding":"not available"},"type":"Feature"},{"geometry":{"coordinates":[-1.166316,46.167271],"type":"Point"},"properties":{"code":"1350","description":"[TribuVi] Abri","id":"MOBIITI:Quay:79689","name":"Tribunal d'Instance","parent_station":"MOBIITI:StopPlace:54052","wheelchair_boarding":"available"},"type":"Feature"},{"geometry":{"coordinates":[-1.095794,46.154659],"type":"Point"},"properties":{"code":"5052","description":"[PmmerSR] Abri","id":"MOBIITI:Quay:79869","name":"Pommeraie","parent_station":"MOBIITI:StopPlace:54151","wheelchair_boarding":"available"},"type":"Feature"},{"geometry":{"coordinates":[-1.16105,46.17345],"type":"Point"},"properties":{"code":"2043","description":"[VallePV] AScen","id":"MOBIITI:Quay:79289","name":"La Vallée","parent_station":"MOBIITI:StopPlace:53842","wheelchair_boarding":"not available"},"type":"Feature"},{"geometry":{"coordinates":[-1.179633,46.159912],"type":"Point"},"properties":{"code":"1213","description":"[CrnneCB] AScln","id":"MOBIITI:Quay:80413","name":"La Couronne","parent_station":"MOBIITI:StopPlace:54591","wheelchair_boarding":"available"},"type":"Feature"},{"geometry":{"coordinates":[-1.16178,46.140911],"type":"Point"},"properties":{"code":"1811","description":"[SauvaBe] Abri","id":"MOBIITI:Quay:79907","name":"La Sauvagère","parent_station":"MOBIITI:StopPlace:54173","wheelchair_boarding":"available"},"type":"Feature"},{"geometry":{"coordinates":[-1.126082,46.131508],"type":"Point"},"properties":{"code":"8018","description":"","id":"MOBIITI:Quay:80022","name":"Collège de l'Atlantique","parent_station":"MOBIITI:StopPlace:54261","wheelchair_boarding":"unknown"},"type":"Feature"},{"geometry":{"coordinates":[-1.121025,46.132751],"type":"Point"},"properties":{"code":"8045","description":"[PGPreAy] AScen","id":"MOBIITI:Quay:79221","name":"Place des Grands Prés","parent_station":"MOBIITI:StopPlace:53804","wheelchair_boarding":"available"},"type":"Feature"},{"geometry":{"coordinates":[-1.151488,46.164909],"type":"Point"},"properties":{"code":"1028","description":"[MuseuSX] ASpln","id":"MOBIITI:Quay:79322","name":"Museum","parent_station":"MOBIITI:StopPlace:53862","wheelchair_boarding":"available"},"type":"Feature"},{"geometry":{"coordinates":[-1.007422,46.152191],"type":"Point"},"properties":{"code":"6203","description":"","id":"MOBIITI:Quay:80014","name":"Les Ormeaux","parent_station":"MOBIITI:StopPlace:54253","wheelchair_boarding":"unknown"},"type":"Feature"},{"geometry":{"coordinates":[-1.047862,46.206249],"type":"Point"},"properties":{"code":"4408","description":"","id":"MOBIITI:Quay:79922","name":"La Grimenaudière","parent_station":"MOBIITI:StopPlace:54182","wheelchair_boarding":"unknown"},"type":"Feature"},{"geometry":{"coordinates":[-1.199202,46.159611],"type":"Point"},"properties":{"code":"1143","description":"[ZCBaiCB] AScln","id":"MOBIITI:Quay:80439","name":"ZI Chef de Baie","parent_station":"MOBIITI:StopPlace:54604","wheelchair_boarding":"available"},"type":"Feature"},{"geometry":{"coordinates":[-1.185311,46.170502],"type":"Point"},"properties":{"code":"1320","description":"[LTourEx] Abri","id":"MOBIITI:Quay:80159","name":"La Tour","parent_station":"MOBIITI:StopPlace:54377","wheelchair_boarding":"not available"},"type":"Feature"},{"geometry":{"coordinates":[-1.084177,46.155266],"type":"Point"},"properties":{"code":"5062","description":"[StdPeSR] AScen","id":"MOBIITI:Quay:79863","name":"Stade de Périgny","parent_station":"MOBIITI:StopPlace:54148","wheelchair_boarding":"not available"},"type":"Feature"},{"geometry":{"coordinates":[-1.131468,46.141426],"type":"Point"},"properties":{"code":"8013","description":"","id":"MOBIITI:Quay:79616","name":"Brassens","parent_station":"MOBIITI:StopPlace:54013","wheelchair_boarding":"unknown"},"type":"Feature"},{"geometry":{"coordinates":[-1.207988,46.163902],"type":"Point"},"properties":{"code":"1105","description":"[ChiLoPV] AScen","id":"MOBIITI:Quay:79256","name":"Chirons Longs","parent_station":"MOBIITI:StopPlace:53826","wheelchair_boarding":"available"},"type":"Feature"},{"geometry":{"coordinates":[-1.195712,46.167652],"type":"Point"},"properties":{"description":"","id":"MOBIITI:StopPlace:53815","name":"Oncor","wheelchair_boarding":"available"},"type":"Feature"},{"geometry":{"coordinates":[-1.098249,46.199787],"type":"Point"},"properties":{"description":"","id":"MOBIITI:StopPlace:54132","name":"Fief Dompierre","wheelchair_boarding":"unknown"},"type":"Feature"},{"geometry":{"coordinates":[-1.112891,46.187084],"type":"Point"},"properties":{"code":"3007","description":"","id":"MOBIITI:Quay:79822","name":"Alsace Lorraine","parent_station":"MOBIITI:StopPlace:54126","wheelchair_boarding":"unknown"},"type":"Feature"},{"geometry":{"coordinates":[-1.073363,46.150867],"type":"Point"},"properties":{"code":"5401","description":"[MaiSRSR] AScen","id":"MOBIITI:Quay:79872","name":"Mairie de Saint-Rogatien","parent_station":"MOBIITI:StopPlace:54152","wheelchair_boarding":"available"},"type":"Feature"},{"geometry":{"coordinates":[-1.020162,46.170242],"type":"Point"},"properties":{"description":"","id":"MOBIITI:StopPlace:54453","name":"Stade de Bourgneuf","wheelchair_boarding":"unknown"},"type":"Feature"},{"geometry":{"coordinates":[-1.101905,46.164677],"type":"Point"},"properties":{"code":"5064","description":"[VaucaZI] AScen","id":"MOBIITI:Quay:79548","name":"Vaucanson","parent_station":"MOBIITI:StopPlace:53976","wheelchair_boarding":"available"},"type":"Feature"},{"geometry":{"coordinates":[-1.151375,46.177258],"type":"Point"},"properties":{"code":"1421","description":"[LyVjeLg] Abri","id":"MOBIITI:Quay:79283","name":"Lycée Vieljeux","parent_station":"MOBIITI:StopPlace:53839","wheelchair_boarding":"available"},"type":"Feature"},{"geometry":{"coordinates":[-1.090691,46.080772],"type":"Point"},"properties":{"description":"","id":"MOBIITI:StopPlace:54087","name":"Surcouf","wheelchair_boarding":"not available"},"type":"Feature"},{"geometry":{"coordinates":[-1.153116,46.162003],"type":"Point"},"properties":{"code":"1036","description":"[PdV_W] ASpln","id":"MOBIITI:Quay:79264","name":"Place de Verdun","parent_station":"MOBIITI:StopPlace:53831","wheelchair_boarding":"available"},"type":"Feature"},{"geometry":{"coordinates":[-1.033142,46.140396],"type":"Point"},"properties":{"code":"7002","description":"","id":"MOBIITI:Quay:79599","name":"Les Massardes","parent_station":"MOBIITI:StopPlace:54003","wheelchair_boarding":"unknown"},"type":"Feature"},{"geometry":{"coordinates":[-1.118247,46.134274],"type":"Point"},"properties":{"code":"8029","description":"[JuFerLP] Abri","id":"MOBIITI:Quay:79187","name":"Jules Ferry","parent_station":"MOBIITI:StopPlace:53788","wheelchair_boarding":"available"},"type":"Feature"},{"geometry":{"coordinates":[-1.135766,46.155003],"type":"Point"},"properties":{"description":"","id":"MOBIITI:StopPlace:53971","name":"Lycée Valin","wheelchair_boarding":"unknown"},"type":"Feature"},{"geometry":{"coordinates":[-1.140969,46.167721],"type":"Point"},"properties":{"description":"","id":"MOBIITI:StopPlace:53941","name":"Beauregard","wheelchair_boarding":"unknown"},"type":"Feature"},{"geometry":{"coordinates":[-1.089777,46.073212],"type":"Point"},"properties":{"code":"9029","description":"[MaiChCh]","id":"MOBIITI:Quay:79749","name":"Mairie de Châtelaillon-Plage","parent_station":"MOBIITI:StopPlace:54084","wheelchair_boarding":"not available"},"type":"Feature"},{"geometry":{"coordinates":[-1.168419,46.160065],"type":"Point"},"properties":{"code":"1430","description":"[VoltaPe] AScln","id":"MOBIITI:Quay:80420","name":"Voltaire","parent_station":"MOBIITI:StopPlace:54594","wheelchair_boarding":"available"},"type":"Feature"},{"geometry":{"coordinates":[-1.145144,46.139587],"type":"Point"},"properties":{"code":"1845","description":"[VtreuBo] ASpln","id":"MOBIITI:Quay:79902","name":"Vautreuil","parent_station":"MOBIITI:StopPlace:54170","wheelchair_boarding":"available"},"type":"Feature"},{"geometry":{"coordinates":[-1.15378,46.148342],"type":"Point"},"properties":{"description":"","id":"MOBIITI:StopPlace:54338","name":"Technoforum","wheelchair_boarding":"available"},"type":"Feature"},{"geometry":{"coordinates":[-1.024608,46.167572],"type":"Point"},"properties":{"code":"6002","description":"","id":"MOBIITI:Quay:79573","name":"Centre-Bourg","parent_station":"MOBIITI:StopPlace:53989","wheelchair_boarding":"unknown"},"type":"Feature"},{"geometry":{"coordinates":[-1.130052,46.156212],"type":"Point"},"properties":{"code":"1723","description":"[PtBroSR] AScen","id":"MOBIITI:Quay:79546","name":"Petit Brouage","parent_station":"MOBIITI:StopPlace:53975","wheelchair_boarding":"available"},"type":"Feature"},{"geometry":{"coordinates":[-1.187016,46.193222],"type":"Point"},"properties":{"description":"","id":"MOBIITI:StopPlace:53852","name":"Bourg de L'Houmeau","wheelchair_boarding":"unknown"},"type":"Feature"},{"geometry":{"coordinates":[-1.101583,46.158875],"type":"Point"},"properties":{"code":"5066","description":"[ZIPerPe] AScen","id":"MOBIITI:Quay:80441","name":"ZI de Périgny","parent_station":"MOBIITI:StopPlace:54605","wheelchair_boarding":"available"},"type":"Feature"},{"geometry":{"coordinates":[-1.155091,46.139374],"type":"Point"},"properties":{"code":"1804","description":"[EigsiLg] Abri","id":"MOBIITI:Quay:79913","name":"EIGSI","parent_station":"MOBIITI:StopPlace:54176","wheelchair_boarding":"available"},"type":"Feature"},{"geometry":{"coordinates":[-1.016388,46.170109],"type":"Point"},"properties":{"description":"","id":"MOBIITI:StopPlace:54184","name":"Calvaire","wheelchair_boarding":"unknown"},"type":"Feature"},{"geometry":{"coordinates":[-1.064219,46.126076],"type":"Point"},"properties":{"description":"","id":"MOBIITI:StopPlace:54040","name":"Pluviers Dorés","wheelchair_boarding":"unknown"},"type":"Feature"},{"geometry":{"coordinates":[-1.160976,46.1562],"type":"Point"},"properties":{"description":"","id":"MOBIITI:StopPlace:54573","name":"Plage de la Concurrence","wheelchair_boarding":"available"},"type":"Feature"},{"geometry":{"coordinates":[-1.139413,46.15274],"type":"Point"},"properties":{"description":"","id":"MOBIITI:StopPlace:53973","name":"Gare La Rochelle - Jean Moulin","wheelchair_boarding":"available"},"type":"Feature"},{"geometry":{"coordinates":[-1.073075,46.150848],"type":"Point"},"properties":{"code":"5400","description":"[MaiSRDB] Abri","id":"MOBIITI:Quay:79871","name":"Mairie de Saint-Rogatien","parent_station":"MOBIITI:StopPlace:54152","wheelchair_boarding":"available"},"type":"Feature"},{"geometry":{"coordinates":[-0.987974,46.20932],"type":"Point"},"properties":{"description":"","id":"MOBIITI:StopPlace:54192","name":"Loiré Le Moulin","wheelchair_boarding":"unknown"},"type":"Feature"},{"geometry":{"coordinates":[-1.216369,46.160736],"type":"Point"},"properties":{"description":"","id":"MOBIITI:StopPlace:53810","name":"La Sirène","wheelchair_boarding":"available"},"type":"Feature"},{"geometry":{"coordinates":[-1.20878,46.150383],"type":"Point"},"properties":{"code":"1101","description":"[AgrocCB] AScen","id":"MOBIITI:Quay:80449","name":"Agrocéan","parent_station":"MOBIITI:StopPlace:54610","wheelchair_boarding":"not available"},"type":"Feature"},{"geometry":{"coordinates":[-1.145938,46.153496],"type":"Point"},"properties":{"code":"1015","description":"Joffre","id":"MOBIITI:Quay:79269","name":"Gare La Rochelle (Joffre)","parent_station":"MOBIITI:StopPlace:53832","wheelchair_boarding":"available"},"type":"Feature"},{"geometry":{"coordinates":[-1.10579,46.107292],"type":"Point"},"properties":{"description":"","id":"MOBIITI:StopPlace:54073","name":"Cimetière d'Angoulins","wheelchair_boarding":"not available"},"type":"Feature"},{"geometry":{"coordinates":[-1.117277,46.183613],"type":"Point"},"properties":{"description":"","id":"MOBIITI:StopPlace:53918","name":"Baillac","wheelchair_boarding":"available"},"type":"Feature"},{"geometry":{"coordinates":[-1.151634,46.177116],"type":"Point"},"properties":{"description":"","id":"MOBIITI:StopPlace:53839","name":"Lycée Vieljeux","wheelchair_boarding":"available"},"type":"Feature"},{"geometry":{"coordinates":[-1.10504,46.13171],"type":"Point"},"properties":{"description":"","id":"MOBIITI:StopPlace:53800","name":"Malidor","wheelchair_boarding":"unknown"},"type":"Feature"},{"geometry":{"coordinates":[-1.082011,46.07349],"type":"Point"},"properties":{"code":"9041","description":"","id":"MOBIITI:Quay:80085","name":"Les Ecuyers","parent_station":"MOBIITI:StopPlace:54318","wheelchair_boarding":"unknown"},"type":"Feature"},{"geometry":{"coordinates":[-1.158836,46.168671],"type":"Point"},"properties":{"code":"1405","description":"[CbertPV] AScln","id":"MOBIITI:Quay:79352","name":"Colbert","parent_station":"MOBIITI:StopPlace:53878","wheelchair_boarding":"available"},"type":"Feature"},{"geometry":{"coordinates":[-1.099961,46.15313],"type":"Point"},"properties":{"description":"","id":"MOBIITI:StopPlace:54158","name":"Les Lilas","wheelchair_boarding":"available"},"type":"Feature"},{"geometry":{"coordinates":[-0.971062,46.158428],"type":"Point"},"properties":{"code":"6411","description":"","id":"MOBIITI:Quay:79583","name":"Le Verger","parent_station":"MOBIITI:StopPlace:53994","wheelchair_boarding":"unknown"},"type":"Feature"},{"geometry":{"coordinates":[-1.140799,46.189213],"type":"Point"},"properties":{"code":"2010","description":"","id":"MOBIITI:Quay:79391","name":"Bois d'Huré","parent_station":"MOBIITI:StopPlace:53899","wheelchair_boarding":"unknown"},"type":"Feature"},{"geometry":{"coordinates":[-1.076962,46.056885],"type":"Point"},"properties":{"code":"9710","description":"","id":"MOBIITI:Quay:79745","name":"Port Punay","parent_station":"MOBIITI:StopPlace:54081","wheelchair_boarding":"not available"},"type":"Feature"},{"geometry":{"coordinates":[-1.107377,46.103626],"type":"Point"},"properties":{"code":"8418","description":"[MilFlCh]","id":"MOBIITI:Quay:79739","name":"Mille Fleurs","parent_station":"MOBIITI:StopPlace:54078","wheelchair_boarding":"not available"},"type":"Feature"},{"geometry":{"coordinates":[-1.064707,46.174339],"type":"Point"},"properties":{"code":"4014","description":"","id":"MOBIITI:Quay:79579","name":"Corne Neuve","parent_station":"MOBIITI:StopPlace:53992","wheelchair_boarding":"unknown"},"type":"Feature"},{"geometry":{"coordinates":[-1.207988,46.163925],"type":"Point"},"properties":{"description":"","id":"MOBIITI:StopPlace:53826","name":"Chirons Longs","wheelchair_boarding":"available"},"type":"Feature"},{"geometry":{"coordinates":[-1.183294,46.165985],"type":"Point"},"properties":{"code":"1302","description":"[AthenPV] AScen","id":"MOBIITI:Quay:80160","name":"Athènes","parent_station":"MOBIITI:StopPlace:54378","wheelchair_boarding":"available"},"type":"Feature"},{"geometry":{"coordinates":[-1.096653,46.088089],"type":"Point"},"properties":{"description":"","id":"MOBIITI:StopPlace:54088","name":"Sècheboue","wheelchair_boarding":"not available"},"type":"Feature"},{"geometry":{"coordinates":[-1.159966,46.211655],"type":"Point"},"properties":{"code":"2528","description":"","id":"MOBIITI:Quay:79788","name":"Val Hureau","parent_station":"MOBIITI:StopPlace:54108","wheelchair_boarding":"unknown"},"type":"Feature"},{"geometry":{"coordinates":[-1.00472,46.131485],"type":"Point"},"properties":{"description":"","id":"MOBIITI:StopPlace:54214","name":"Collège Françoise Dolto","wheelchair_boarding":"unknown"},"type":"Feature"},{"geometry":{"coordinates":[-1.220466,46.149406],"type":"Point"},"properties":{"code":"1134","description":"[PPechPe] AScen","id":"MOBIITI:Quay:80433","name":"Port de Pêche","parent_station":"MOBIITI:StopPlace:54601","wheelchair_boarding":"not available"},"type":"Feature"},{"geometry":{"coordinates":[-1.1681,46.173466],"type":"Point"},"properties":{"code":"2013","description":"[CCFRoVj] Abri","id":"MOBIITI:Quay:80395","name":"Centre Commercial du Fief Rose","parent_station":"MOBIITI:StopPlace:54581","wheelchair_boarding":"available"},"type":"Feature"},{"geometry":{"coordinates":[-1.1193,46.165462],"type":"Point"},"properties":{"code":"5006","description":"[ChRosCB] Abri","id":"MOBIITI:Quay:79861","name":"Chemin des Rossignols","parent_station":"MOBIITI:StopPlace:54146","wheelchair_boarding":"not available"},"type":"Feature"},{"geometry":{"coordinates":[-1.189059,46.184147],"type":"Point"},"properties":{"code":"2414","description":"","id":"MOBIITI:Quay:79316","name":"Monsidun","parent_station":"MOBIITI:StopPlace:53858","wheelchair_boarding":"unknown"},"type":"Feature"},{"geometry":{"coordinates":[-1.0964,46.131065],"type":"Point"},"properties":{"code":"8010","description":"[BelAiAy] ASpln","id":"MOBIITI:Quay:79182","name":"Belle Aire","parent_station":"MOBIITI:StopPlace:53785","wheelchair_boarding":"available"},"type":"Feature"},{"geometry":{"coordinates":[-1.067526,46.12648],"type":"Point"},"properties":{"code":"7613","description":"","id":"MOBIITI:Quay:79666","name":"Le Moulin","parent_station":"MOBIITI:StopPlace:54041","wheelchair_boarding":"unknown"},"type":"Feature"},{"geometry":{"coordinates":[-1.036064,46.17445],"type":"Point"},"properties":{"code":"6003","description":"","id":"MOBIITI:Quay:79575","name":"La Gabardelière","parent_station":"MOBIITI:StopPlace:53990","wheelchair_boarding":"unknown"},"type":"Feature"},{"geometry":{"coordinates":[-1.013659,46.132324],"type":"Point"},"properties":{"description":"","id":"MOBIITI:StopPlace:54405","name":"Les Deux Moulins","wheelchair_boarding":"unknown"},"type":"Feature"},{"geometry":{"coordinates":[-0.956608,46.17886],"type":"Point"},"properties":{"description":"","id":"MOBIITI:StopPlace:53965","name":"Fontpatour","wheelchair_boarding":"unknown"},"type":"Feature"},{"geometry":{"coordinates":[-1.171787,46.160648],"type":"Point"},"properties":{"description":"","id":"MOBIITI:StopPlace:54596","name":"La Genette","wheelchair_boarding":"available"},"type":"Feature"},{"geometry":{"coordinates":[-1.11758,46.188087],"type":"Point"},"properties":{"description":"","id":"MOBIITI:StopPlace:53922","name":"Le Château","wheelchair_boarding":"unknown"},"type":"Feature"},{"geometry":{"coordinates":[-1.106522,46.177505],"type":"Point"},"properties":{"description":"","id":"MOBIITI:StopPlace:54543","name":"Beaulieu Centre","wheelchair_boarding":"available"},"type":"Feature"},{"geometry":{"coordinates":[-1.149933,46.164444],"type":"Point"},"properties":{"description":"","id":"MOBIITI:StopPlace:54612","name":"Orbigny","wheelchair_boarding":"available"},"type":"Feature"},{"geometry":{"coordinates":[-1.150702,46.166698],"type":"Point"},"properties":{"code":"1021","description":"[GlaciSX] ASpln","id":"MOBIITI:Quay:79321","name":"Glacière","parent_station":"MOBIITI:StopPlace:53861","wheelchair_boarding":"available"},"type":"Feature"},{"geometry":{"coordinates":[-1.147381,46.178745],"type":"Point"},"properties":{"code":"2008","description":"","id":"MOBIITI:Quay:79392","name":"Blériot","parent_station":"MOBIITI:StopPlace:53900","wheelchair_boarding":"unknown"},"type":"Feature"},{"geometry":{"coordinates":[-1.053994,46.10511],"type":"Point"},"properties":{"description":"","id":"MOBIITI:StopPlace:54027","name":"Bourg de Salles sur Mer","wheelchair_boarding":"unknown"},"type":"Feature"},{"geometry":{"coordinates":[-1.179721,46.171684],"type":"Point"},"properties":{"description":"","id":"MOBIITI:StopPlace:54056","name":"Guiardes","wheelchair_boarding":"available"},"type":"Feature"},{"geometry":{"coordinates":[-1.180258,46.169533],"type":"Point"},"properties":{"code":"1342","description":"[ResisVi] Abri","id":"MOBIITI:Quay:79691","name":"Résistance","parent_station":"MOBIITI:StopPlace:54053","wheelchair_boarding":"available"},"type":"Feature"},{"geometry":{"coordinates":[-1.058008,46.188667],"type":"Point"},"properties":{"code":"4012","description":"","id":"MOBIITI:Quay:79931","name":"Collège Marc Chagall","parent_station":"MOBIITI:StopPlace:54187","wheelchair_boarding":"unknown"},"type":"Feature"},{"geometry":{"coordinates":[-0.975858,46.184483],"type":"Point"},"properties":{"code":"4427","description":"","id":"MOBIITI:Quay:79917","name":"Saint-Coux","parent_station":"MOBIITI:StopPlace:54178","wheelchair_boarding":"unknown"},"type":"Feature"},{"geometry":{"coordinates":[-1.082698,46.057957],"type":"Point"},"properties":{"description":"","id":"MOBIITI:StopPlace:54090","name":"Angoute","wheelchair_boarding":"not available"},"type":"Feature"},{"geometry":{"coordinates":[-1.09678,46.16156],"type":"Point"},"properties":{"code":"5047","description":"[PassyDB] Abri","id":"MOBIITI:Quay:79551","name":"Passy","parent_station":"MOBIITI:StopPlace:53978","wheelchair_boarding":"available"},"type":"Feature"},{"geometry":{"coordinates":[-1.154519,46.187492],"type":"Point"},"properties":{"code":"2035","description":"","id":"MOBIITI:Quay:79774","name":"Jean Perrin","parent_station":"MOBIITI:StopPlace:54098","wheelchair_boarding":"unknown"},"type":"Feature"},{"geometry":{"coordinates":[-0.932647,46.153332],"type":"Point"},"properties":{"code":"6402","description":"","id":"MOBIITI:Quay:79964","name":"La Martinière","parent_station":"MOBIITI:StopPlace:54210","wheelchair_boarding":"unknown"},"type":"Feature"},{"geometry":{"coordinates":[-1.126363,46.163933],"type":"Point"},"properties":{"code":"1623","description":"[RavelPe] AScen","id":"MOBIITI:Quay:80408","name":"Ravel","parent_station":"MOBIITI:StopPlace:54588","wheelchair_boarding":"available"},"type":"Feature"},{"geometry":{"coordinates":[-1.139519,46.141788],"type":"Point"},"properties":{"description":"","id":"MOBIITI:StopPlace:53793","name":"Normandin","wheelchair_boarding":"unknown"},"type":"Feature"},{"geometry":{"coordinates":[-1.107711,46.101357],"type":"Point"},"properties":{"code":"8413","description":"[VeaVeGa]","id":"MOBIITI:Quay:79723","name":"Les Veaux Verts","parent_station":"MOBIITI:StopPlace:54069","wheelchair_boarding":"not available"},"type":"Feature"},{"geometry":{"coordinates":[-1.204575,46.164162],"type":"Point"},"properties":{"code":"1127","description":"[MtreaLP] ASpln","id":"MOBIITI:Quay:79241","name":"Montréal","parent_station":"MOBIITI:StopPlace:53816","wheelchair_boarding":"available"},"type":"Feature"},{"geometry":{"coordinates":[-1.062121,46.189354],"type":"Point"},"properties":{"code":"4031","description":"","id":"MOBIITI:Quay:79456","name":"Mairie de Dompierre","parent_station":"MOBIITI:StopPlace:53931","wheelchair_boarding":"unknown"},"type":"Feature"},{"geometry":{"coordinates":[-1.180827,46.154366],"type":"Point"},"properties":{"code":"1209","description":"[LyMarPV] Abri","id":"MOBIITI:Quay:80297","name":"Lycée Maritime","parent_station":"MOBIITI:StopPlace:54504","wheelchair_boarding":"available"},"type":"Feature"},{"geometry":{"coordinates":[-1.082416,46.158367],"type":"Point"},"properties":{"code":"5018","description":"[CaillDB] Abri","id":"MOBIITI:Quay:79880","name":"La Caillaude","parent_station":"MOBIITI:StopPlace:54157","wheelchair_boarding":"not available"},"type":"Feature"},{"geometry":{"coordinates":[-1.059573,46.106705],"type":"Point"},"properties":{"description":"","id":"MOBIITI:StopPlace:54024","name":"Les Monrois","wheelchair_boarding":"unknown"},"type":"Feature"},{"geometry":{"coordinates":[-1.116523,46.129368],"type":"Point"},"properties":{"code":"8030","description":"[CedreCh]","id":"MOBIITI:Quay:79718","name":"Les Cèdres","parent_station":"MOBIITI:StopPlace:54067","wheelchair_boarding":"not available"},"type":"Feature"},{"geometry":{"coordinates":[-1.180497,46.167461],"type":"Point"},"properties":{"code":"1317","description":"[KenneVi] Abri","id":"MOBIITI:Quay:79696","name":"Kennedy","parent_station":"MOBIITI:StopPlace:54055","wheelchair_boarding":"available"},"type":"Feature"},{"geometry":{"coordinates":[-1.124538,46.172382],"type":"Point"},"properties":{"description":"","id":"MOBIITI:StopPlace:54541","name":"Bourgogne","wheelchair_boarding":"not available"},"type":"Feature"},{"geometry":{"coordinates":[-1.146077,46.160004],"type":"Point"},"properties":{"description":"","id":"MOBIITI:StopPlace:54547","name":"Saint-Louis","wheelchair_boarding":"available"},"type":"Feature"},{"geometry":{"coordinates":[-1.21363,46.162212],"type":"Point"},"properties":{"code":"1145","description":"[FrigoDi] AScen","id":"MOBIITI:Quay:79235","name":"Frigo","parent_station":"MOBIITI:StopPlace:53812","wheelchair_boarding":"not available"},"type":"Feature"},{"geometry":{"coordinates":[-1.158814,46.170898],"type":"Point"},"properties":{"description":"","id":"MOBIITI:StopPlace:53869","name":"La Trompette","wheelchair_boarding":"not available"},"type":"Feature"},{"geometry":{"coordinates":[-1.004142,46.171066],"type":"Point"},"properties":{"description":"","id":"MOBIITI:StopPlace:54191","name":"Treuil Arnaudeau","wheelchair_boarding":"unknown"},"type":"Feature"},{"geometry":{"coordinates":[-1.151539,46.169571],"type":"Point"},"properties":{"description":"","id":"MOBIITI:StopPlace:53863","name":"Piscine","wheelchair_boarding":"available"},"type":"Feature"},{"geometry":{"coordinates":[-1.088497,46.157688],"type":"Point"},"properties":{"code":"5028","description":"[CrlleSR] AScen","id":"MOBIITI:Quay:79887","name":"Les Coureilles","parent_station":"MOBIITI:StopPlace:54160","wheelchair_boarding":"available"},"type":"Feature"},{"geometry":{"coordinates":[-1.150702,46.166698],"type":"Point"},"properties":{"description":"","id":"MOBIITI:StopPlace:53861","name":"Glacière","wheelchair_boarding":"available"},"type":"Feature"},{"geometry":{"coordinates":[-0.96637,46.082165],"type":"Point"},"properties":{"code":"9604","description":"","id":"MOBIITI:Quay:80046","name":"La Gravelle","parent_station":"MOBIITI:StopPlace:54282","wheelchair_boarding":"unknown"},"type":"Feature"},{"geometry":{"coordinates":[-1.154468,46.145905],"type":"Point"},"properties":{"description":"","id":"MOBIITI:StopPlace:54339","name":"Le Lac","wheelchair_boarding":"available"},"type":"Feature"},{"geometry":{"coordinates":[-1.152049,46.138287],"type":"Point"},"properties":{"description":"","id":"MOBIITI:StopPlace:54174","name":"Maison de la Charente-Maritime","wheelchair_boarding":"available"},"type":"Feature"},{"geometry":{"coordinates":[-1.080122,46.130127],"type":"Point"},"properties":{"code":"7611","description":"","id":"MOBIITI:Quay:79669","name":"Le Givrand","parent_station":"MOBIITI:StopPlace:54042","wheelchair_boarding":"unknown"},"type":"Feature"},{"geometry":{"coordinates":[-1.114525,46.252026],"type":"Point"},"properties":{"description":"","id":"MOBIITI:StopPlace:53906","name":"Salle des Fêtes d'Esnandes","wheelchair_boarding":"unknown"},"type":"Feature"},{"geometry":{"coordinates":[-1.085465,46.077232],"type":"Point"},"properties":{"code":"9014","description":"","id":"MOBIITI:Quay:79654","name":"Chêne Vert","parent_station":"MOBIITI:StopPlace:54034","wheelchair_boarding":"unknown"},"type":"Feature"},{"geometry":{"coordinates":[-1.009417,46.185726],"type":"Point"},"properties":{"code":"4404","description":"","id":"MOBIITI:Quay:79515","name":"Eglise de Sainte Soulle","parent_station":"MOBIITI:StopPlace:53960","wheelchair_boarding":"unknown"},"type":"Feature"},{"geometry":{"coordinates":[-1.157349,46.210171],"type":"Point"},"properties":{"code":"2505","description":"","id":"MOBIITI:Quay:79792","name":"Jardins du Gô","parent_station":"MOBIITI:StopPlace:54110","wheelchair_boarding":"unknown"},"type":"Feature"},{"geometry":{"coordinates":[-1.157216,46.141411],"type":"Point"},"properties":{"code":"1807","description":"[EuropBo] Abri","id":"MOBIITI:Quay:79912","name":"Europe","parent_station":"MOBIITI:StopPlace:54175","wheelchair_boarding":"available"},"type":"Feature"},{"geometry":{"coordinates":[-1.195291,46.169868],"type":"Point"},"properties":{"code":"1108","description":"[ClbriAy] Abri","id":"MOBIITI:Quay:79253","name":"Colibri","parent_station":"MOBIITI:StopPlace:53824","wheelchair_boarding":"available"},"type":"Feature"},{"geometry":{"coordinates":[-1.088527,46.064896],"type":"Point"},"properties":{"code":"9000","description":"[AlonCh]","id":"MOBIITI:Quay:79763","name":"Alon","parent_station":"MOBIITI:StopPlace:54091","wheelchair_boarding":"not available"},"type":"Feature"},{"geometry":{"coordinates":[-1.148968,46.138645],"type":"Point"},"properties":{"description":"","id":"MOBIITI:StopPlace:54172","name":"Le Rail","wheelchair_boarding":"available"},"type":"Feature"},{"geometry":{"coordinates":[-0.972212,46.196213],"type":"Point"},"properties":{"code":"4610","description":"","id":"MOBIITI:Quay:79531","name":"Stade de Vérines","parent_station":"MOBIITI:StopPlace:53969","wheelchair_boarding":"unknown"},"type":"Feature"},{"geometry":{"coordinates":[-1.163591,46.182091],"type":"Point"},"properties":{"description":"","id":"MOBIITI:StopPlace:53885","name":"Les Néfliers","wheelchair_boarding":"available"},"type":"Feature"},{"geometry":{"coordinates":[-1.177643,46.167297],"type":"Point"},"properties":{"description":"","id":"MOBIITI:StopPlace:54057","name":"Dame Hilaire","wheelchair_boarding":"available"},"type":"Feature"},{"geometry":{"coordinates":[-1.107878,46.101467],"type":"Point"},"properties":{"description":"","id":"MOBIITI:StopPlace:54069","name":"Les Veaux Verts","wheelchair_boarding":"not available"},"type":"Feature"},{"geometry":{"coordinates":[-1.104311,46.097385],"type":"Point"},"properties":{"code":"8416","description":"[MaCarCh]","id":"MOBIITI:Quay:79735","name":"Maison Carrée","parent_station":"MOBIITI:StopPlace:54076","wheelchair_boarding":"not available"},"type":"Feature"},{"geometry":{"coordinates":[-1.091539,46.062527],"type":"Point"},"properties":{"code":"9011","description":"[CAquaCh]","id":"MOBIITI:Quay:79770","name":"Centre Aquatique","parent_station":"MOBIITI:StopPlace:54094","wheelchair_boarding":"not available"},"type":"Feature"},{"geometry":{"coordinates":[-1.135083,46.173355],"type":"Point"},"properties":{"code":"1522","description":"[MaquiDo] MDO","id":"MOBIITI:Quay:79485","name":"Maquis","parent_station":"MOBIITI:StopPlace:53945","wheelchair_boarding":"available"},"type":"Feature"},{"geometry":{"coordinates":[-1.116091,46.181026],"type":"Point"},"properties":{"code":"3052","description":"[VigPoSX] AScen","id":"MOBIITI:Quay:79441","name":"Les Vignes Pourpres","parent_station":"MOBIITI:StopPlace:53924","wheelchair_boarding":"available"},"type":"Feature"},{"geometry":{"coordinates":[-1.150277,46.177994],"type":"Point"},"properties":{"code":"2028","description":"","id":"MOBIITI:Quay:79387","name":"Flandres - Lycée Vieljeux","parent_station":"MOBIITI:StopPlace:53897","wheelchair_boarding":"unknown"},"type":"Feature"},{"geometry":{"coordinates":[-1.157086,46.141548],"type":"Point"},"properties":{"code":"1808","description":"[EuropLg] Abri","id":"MOBIITI:Quay:79911","name":"Europe","parent_station":"MOBIITI:StopPlace:54175","wheelchair_boarding":"available"},"type":"Feature"},{"geometry":{"coordinates":[-1.124677,46.164375],"type":"Point"},"properties":{"code":"1604","description":"[GeranCB] AScen","id":"MOBIITI:Quay:79848","name":"Géraniums","parent_station":"MOBIITI:StopPlace:54139","wheelchair_boarding":"not available"},"type":"Feature"},{"geometry":{"coordinates":[-1.082688,46.057915],"type":"Point"},"properties":{"code":"9003","description":"","id":"MOBIITI:Quay:79762","name":"Angoute","parent_station":"MOBIITI:StopPlace:54090","wheelchair_boarding":"not available"},"type":"Feature"},{"geometry":{"coordinates":[-1.161222,46.155907],"type":"Point"},"properties":{"code":"1227","description":"[PlagePV] AScln","id":"MOBIITI:Quay:80381","name":"Plage de la Concurrence","parent_station":"MOBIITI:StopPlace:54573","wheelchair_boarding":"available"},"type":"Feature"},{"geometry":{"coordinates":[-1.11733,46.177021],"type":"Point"},"properties":{"code":"3028","description":"[FrncePV] Abri","id":"MOBIITI:Quay:79449","name":"France","parent_station":"MOBIITI:StopPlace:53928","wheelchair_boarding":"available"},"type":"Feature"},{"geometry":{"coordinates":[-0.987268,46.156303],"type":"Point"},"properties":{"code":"6406","description":"","id":"MOBIITI:Quay:79584","name":"L'Aubertière","parent_station":"MOBIITI:StopPlace:53995","wheelchair_boarding":"unknown"},"type":"Feature"},{"geometry":{"coordinates":[-1.024524,46.049046],"type":"Point"},"properties":{"description":"","id":"MOBIITI:StopPlace:54321","name":"Voutron","wheelchair_boarding":"unknown"},"type":"Feature"},{"geometry":{"coordinates":[-1.048909,46.207279],"type":"Point"},"properties":{"code":"4033","description":"","id":"MOBIITI:Quay:79928","name":"Mouillepieds","parent_station":"MOBIITI:StopPlace:54185","wheelchair_boarding":"unknown"},"type":"Feature"},{"geometry":{"coordinates":[-0.952133,46.147354],"type":"Point"},"properties":{"code":"6404","description":"","id":"MOBIITI:Quay:79962","name":"La Navisselière","parent_station":"MOBIITI:StopPlace:54209","wheelchair_boarding":"unknown"},"type":"Feature"},{"geometry":{"coordinates":[-1.115893,46.190247],"type":"Point"},"properties":{"description":"","id":"MOBIITI:StopPlace:53925","name":"Les Grands Champs","wheelchair_boarding":"available"},"type":"Feature"},{"geometry":{"coordinates":[-1.100222,46.162189],"type":"Point"},"properties":{"code":"5001","description":"[ABergZI] AScen","id":"MOBIITI:Quay:79558","name":"Aristide Bergès","parent_station":"MOBIITI:StopPlace:53982","wheelchair_boarding":"available"},"type":"Feature"},{"geometry":{"coordinates":[-1.127072,46.173702],"type":"Point"},"properties":{"description":"","id":"MOBIITI:StopPlace:54540","name":"Clinique","wheelchair_boarding":"unknown"},"type":"Feature"},{"geometry":{"coordinates":[-1.122402,46.127129],"type":"Point"},"properties":{"code":"8042","description":"[MaDouLP] Abri","id":"MOBIITI:Quay:79218","name":"Marais Doux","parent_station":"MOBIITI:StopPlace:53802","wheelchair_boarding":"available"},"type":"Feature"},{"geometry":{"coordinates":[-1.145183,46.158501],"type":"Point"},"properties":{"code":"1024","description":"[HopitLP] ASpln","id":"MOBIITI:Quay:79274","name":"Hôpital","parent_station":"MOBIITI:StopPlace:53834","wheelchair_boarding":"available"},"type":"Feature"},{"geometry":{"coordinates":[-1.145175,46.153797],"type":"Point"},"properties":{"code":"1018","description":"Joffre","id":"MOBIITI:Quay:79270","name":"Gare La Rochelle (Joffre)","parent_station":"MOBIITI:StopPlace:53832","wheelchair_boarding":"available"},"type":"Feature"},{"geometry":{"coordinates":[-1.054016,46.105129],"type":"Point"},"properties":{"code":"9401","description":"","id":"MOBIITI:Quay:79642","name":"Bourg de Salles sur Mer","parent_station":"MOBIITI:StopPlace:54027","wheelchair_boarding":"unknown"},"type":"Feature"},{"geometry":{"coordinates":[-1.075421,46.191391],"type":"Point"},"properties":{"description":"","id":"MOBIITI:StopPlace:53935","name":"La Fromagère","wheelchair_boarding":"unknown"},"type":"Feature"},{"geometry":{"coordinates":[-1.190917,46.186111],"type":"Point"},"properties":{"code":"2422","description":"","id":"MOBIITI:Quay:79306","name":"Victor Hugo","parent_station":"MOBIITI:StopPlace:53851","wheelchair_boarding":"unknown"},"type":"Feature"},{"geometry":{"coordinates":[-1.118564,46.132217],"type":"Point"},"properties":{"code":"8009","description":"[BarbeGa]","id":"MOBIITI:Quay:79184","name":"Barbedette","parent_station":"MOBIITI:StopPlace:53786","wheelchair_boarding":"not available"},"type":"Feature"},{"geometry":{"coordinates":[-1.164761,46.163315],"type":"Point"},"properties":{"description":"","id":"MOBIITI:StopPlace:53801","name":"Coligny","wheelchair_boarding":"unknown"},"type":"Feature"},{"geometry":{"coordinates":[-1.17338,46.154167],"type":"Point"},"properties":{"code":"1223","description":"[PhVinPV] Abri","id":"MOBIITI:Quay:80382","name":"Philippe Vincent","parent_station":"MOBIITI:StopPlace:54574","wheelchair_boarding":"available"},"type":"Feature"},{"geometry":{"coordinates":[-1.166038,46.173519],"type":"Point"},"properties":{"code":"2072","description":"[ZVallPV] Abri","id":"MOBIITI:Quay:79294","name":"ZAC La Vallée","parent_station":"MOBIITI:StopPlace:53845","wheelchair_boarding":"available"},"type":"Feature"},{"geometry":{"coordinates":[-1.002047,46.129868],"type":"Point"},"properties":{"code":"7208","description":"","id":"MOBIITI:Quay:79610","name":"Les Abeilles","parent_station":"MOBIITI:StopPlace:54009","wheelchair_boarding":"unknown"},"type":"Feature"},{"geometry":{"coordinates":[-1.160337,46.206116],"type":"Point"},"properties":{"description":"","id":"MOBIITI:StopPlace:53875","name":"Les Allées Vieljeux","wheelchair_boarding":"not available"},"type":"Feature"},{"geometry":{"coordinates":[-1.091634,46.076332],"type":"Point"},"properties":{"description":"","id":"MOBIITI:StopPlace:54033","name":"Casino","wheelchair_boarding":"not available"},"type":"Feature"},{"geometry":{"coordinates":[-1.07792,46.118919],"type":"Point"},"properties":{"code":"7602","description":"","id":"MOBIITI:Quay:79659","name":"Carrefour de Vuhé","parent_station":"MOBIITI:StopPlace:54037","wheelchair_boarding":"unknown"},"type":"Feature"},{"geometry":{"coordinates":[-1.113683,46.181236],"type":"Point"},"properties":{"description":"","id":"MOBIITI:StopPlace:53946","name":"Les Fléneaux","wheelchair_boarding":"unknown"},"type":"Feature"},{"geometry":{"coordinates":[-1.153702,46.192722],"type":"Point"},"properties":{"code":"2029","description":"[FVietNi] AScen","id":"MOBIITI:Quay:79353","name":"François Viète","parent_station":"MOBIITI:StopPlace:53879","wheelchair_boarding":"available"},"type":"Feature"},{"geometry":{"coordinates":[-1.147183,46.191441],"type":"Point"},"properties":{"description":"","id":"MOBIITI:StopPlace:53884","name":"Le Rayon d'Or","wheelchair_boarding":"available"},"type":"Feature"},{"geometry":{"coordinates":[-0.952072,46.147324],"type":"Point"},"properties":{"code":"6405","description":"","id":"MOBIITI:Quay:79963","name":"La Navisselière","parent_station":"MOBIITI:StopPlace:54209","wheelchair_boarding":"unknown"},"type":"Feature"},{"geometry":{"coordinates":[-1.157284,46.210117],"type":"Point"},"properties":{"description":"","id":"MOBIITI:StopPlace:54110","name":"Jardins du Gô","wheelchair_boarding":"unknown"},"type":"Feature"},{"geometry":{"coordinates":[-1.150502,46.149502],"type":"Point"},"properties":{"code":"1827","description":"[MuMarLg] Abri","id":"MOBIITI:Quay:80111","name":"Musée Maritime","parent_station":"MOBIITI:StopPlace:54341","wheelchair_boarding":"available"},"type":"Feature"},{"geometry":{"coordinates":[-1.119358,46.165356],"type":"Point"},"properties":{"code":"5007","description":"[ChRosPe] AScen","id":"MOBIITI:Quay:79860","name":"Chemin des Rossignols","parent_station":"MOBIITI:StopPlace:54146","wheelchair_boarding":"not available"},"type":"Feature"},{"geometry":{"coordinates":[-1.088515,46.077728],"type":"Point"},"properties":{"code":"9005","description":"[AriBrGa]","id":"MOBIITI:Quay:79767","name":"Aristide Briand","parent_station":"MOBIITI:StopPlace:54093","wheelchair_boarding":"not available"},"type":"Feature"},{"geometry":{"coordinates":[-1.116748,46.129799],"type":"Point"},"properties":{"description":"","id":"MOBIITI:StopPlace:54067","name":"Les Cèdres","wheelchair_boarding":"not available"},"type":"Feature"},{"geometry":{"coordinates":[-1.009399,46.185822],"type":"Point"},"properties":{"code":"4403","description":"","id":"MOBIITI:Quay:79514","name":"Eglise de Sainte Soulle","parent_station":"MOBIITI:StopPlace:53960","wheelchair_boarding":"unknown"},"type":"Feature"},{"geometry":{"coordinates":[-1.144488,46.149178],"type":"Point"},"properties":{"code":"1834","description":"[PBritLP] Abri","id":"MOBIITI:Quay:79193","name":"Place des Britanniques","parent_station":"MOBIITI:StopPlace:53791","wheelchair_boarding":"available"},"type":"Feature"},{"geometry":{"coordinates":[-1.115257,46.140339],"type":"Point"},"properties":{"code":"8036","description":"","id":"MOBIITI:Quay:79632","name":"Les Treilles","parent_station":"MOBIITI:StopPlace:54021","wheelchair_boarding":"unknown"},"type":"Feature"},{"geometry":{"coordinates":[-1.147286,46.189838],"type":"Point"},"properties":{"code":"2059","description":"[GrffiLg] ASpln","id":"MOBIITI:Quay:80120","name":"Les Greffières","parent_station":"MOBIITI:StopPlace:54346","wheelchair_boarding":"available"},"type":"Feature"},{"geometry":{"coordinates":[-1.054266,46.079914],"type":"Point"},"properties":{"code":"9503","description":"","id":"MOBIITI:Quay:79805","name":"Mairie de Saint Vivien","parent_station":"MOBIITI:StopPlace:54116","wheelchair_boarding":"unknown"},"type":"Feature"},{"geometry":{"coordinates":[-1.045074,46.042259],"type":"Point"},"properties":{"code":"9711","description":"","id":"MOBIITI:Quay:79806","name":"Salle Polyvalente de Yves","parent_station":"MOBIITI:StopPlace:54117","wheelchair_boarding":"unknown"},"type":"Feature"},{"geometry":{"coordinates":[-0.970916,46.158386],"type":"Point"},"properties":{"description":"","id":"MOBIITI:StopPlace:53994","name":"Le Verger","wheelchair_boarding":"unknown"},"type":"Feature"},{"geometry":{"coordinates":[-1.149666,46.158436],"type":"Point"},"properties":{"description":"St-Nicolas","id":"MOBIITI:StopPlace:53998","name":"Dames Blanches","wheelchair_boarding":"available"},"type":"Feature"},{"geometry":{"coordinates":[-1.027072,46.138966],"type":"Point"},"properties":{"code":"7004","description":"","id":"MOBIITI:Quay:79597","name":"Mairie de Clavette","parent_station":"MOBIITI:StopPlace:54002","wheelchair_boarding":"unknown"},"type":"Feature"},{"geometry":{"coordinates":[-1.099388,46.181461],"type":"Point"},"properties":{"description":"","id":"MOBIITI:StopPlace:53949","name":"Belle Etoile","wheelchair_boarding":"unknown"},"type":"Feature"},{"geometry":{"coordinates":[-1.185293,46.191631],"type":"Point"},"properties":{"code":"2409","description":"","id":"MOBIITI:Quay:79311","name":"Le Cormier","parent_station":"MOBIITI:StopPlace:53855","wheelchair_boarding":"unknown"},"type":"Feature"},{"geometry":{"coordinates":[-1.087234,46.056206],"type":"Point"},"properties":{"description":"","id":"MOBIITI:StopPlace:54096","name":"Bellevue","wheelchair_boarding":"not available"},"type":"Feature"},{"geometry":{"coordinates":[-1.10771,46.10651],"type":"Point"},"properties":{"description":"","id":"MOBIITI:StopPlace:54066","name":"Stade d'Angoulins","wheelchair_boarding":"not available"},"type":"Feature"},{"geometry":{"coordinates":[-1.134991,46.140339],"type":"Point"},"properties":{"code":"8053","description":"[SalenLP] Abri","id":"MOBIITI:Quay:79206","name":"Salengro","parent_station":"MOBIITI:StopPlace:53796","wheelchair_boarding":"available"},"type":"Feature"},{"geometry":{"coordinates":[-1.150502,46.157963],"type":"Point"},"properties":{"code":"1006","description":"Quai Valin","id":"MOBIITI:Quay:80123","name":"Dames Blanches (Quai Valin)","parent_station":"MOBIITI:StopPlace:54348","wheelchair_boarding":"available"},"type":"Feature"},{"geometry":{"coordinates":[-0.99019,46.206711],"type":"Point"},"properties":{"code":"4609","description":"","id":"MOBIITI:Quay:79529","name":"Pas de l'Ane","parent_station":"MOBIITI:StopPlace:53968","wheelchair_boarding":"unknown"},"type":"Feature"},{"geometry":{"coordinates":[-1.155102,46.139313],"type":"Point"},"properties":{"code":"1803","description":"[EigsiBo] Abri","id":"MOBIITI:Quay:79914","name":"EIGSI","parent_station":"MOBIITI:StopPlace:54176","wheelchair_boarding":"available"},"type":"Feature"},{"geometry":{"coordinates":[-1.051858,46.188938],"type":"Point"},"properties":{"code":"4423","description":"","id":"MOBIITI:Quay:79451","name":"Pont de la Fumate","parent_station":"MOBIITI:StopPlace:53929","wheelchair_boarding":"unknown"},"type":"Feature"},{"geometry":{"coordinates":[-1.117,46.177143],"type":"Point"},"properties":{"code":"3029","description":"[FrnceSX] AScen","id":"MOBIITI:Quay:79448","name":"France","parent_station":"MOBIITI:StopPlace:53928","wheelchair_boarding":"not available"},"type":"Feature"},{"geometry":{"coordinates":[-1.099266,46.092045],"type":"Point"},"properties":{"description":"","id":"MOBIITI:StopPlace:54092","name":"Ball-Trap","wheelchair_boarding":"not available"},"type":"Feature"},{"geometry":{"coordinates":[-1.124912,46.133022],"type":"Point"},"properties":{"code":"8017","description":"","id":"MOBIITI:Quay:79713","name":"Collège","parent_station":"MOBIITI:StopPlace:54064","wheelchair_boarding":"unknown"},"type":"Feature"},{"geometry":{"coordinates":[-1.007515,46.152203],"type":"Point"},"properties":{"code":"6202","description":"","id":"MOBIITI:Quay:80013","name":"Les Ormeaux","parent_station":"MOBIITI:StopPlace:54253","wheelchair_boarding":"unknown"},"type":"Feature"},{"geometry":{"coordinates":[-1.070471,46.213322],"type":"Point"},"properties":{"code":"3404","description":"","id":"MOBIITI:Quay:79836","name":"La Godinerie","parent_station":"MOBIITI:StopPlace:54133","wheelchair_boarding":"unknown"},"type":"Feature"},{"geometry":{"coordinates":[-1.123669,46.165619],"type":"Point"},"properties":{"code":"1608","description":"","id":"MOBIITI:Quay:79846","name":"Jacques Charles","parent_station":"MOBIITI:StopPlace:54138","wheelchair_boarding":"unknown"},"type":"Feature"},{"geometry":{"coordinates":[-1.094505,46.171268],"type":"Point"},"properties":{"description":"","id":"MOBIITI:StopPlace:54190","name":"Chagnolet Rompsay","wheelchair_boarding":"unknown"},"type":"Feature"},{"geometry":{"coordinates":[-0.970739,46.143475],"type":"Point"},"properties":{"code":"6400","description":"","id":"MOBIITI:Quay:79953","name":"La Couronne de Cugné","parent_station":"MOBIITI:StopPlace:54203","wheelchair_boarding":"unknown"},"type":"Feature"},{"geometry":{"coordinates":[-1.138157,46.230282],"type":"Point"},"properties":{"description":"","id":"MOBIITI:StopPlace:53889","name":"Eglise de Marsilly","wheelchair_boarding":"unknown"},"type":"Feature"},{"geometry":{"coordinates":[-1.062822,46.148628],"type":"Point"},"properties":{"code":"5404","description":"[PRRogDB] Abri","id":"MOBIITI:Quay:79875","name":"P+R Saint-Rogatien","parent_station":"MOBIITI:StopPlace:54154","wheelchair_boarding":"available"},"type":"Feature"},{"geometry":{"coordinates":[-1.101698,46.159061],"type":"Point"},"properties":{"description":"","id":"MOBIITI:StopPlace:54605","name":"ZI de Périgny","wheelchair_boarding":"available"},"type":"Feature"},{"geometry":{"coordinates":[-1.091094,46.162575],"type":"Point"},"properties":{"code":"5016","description":"[BgneDB] Abri","id":"MOBIITI:Quay:105360","name":"La Bourgne","parent_station":"MOBIITI:StopPlace:53980","wheelchair_boarding":"available"},"type":"Feature"},{"geometry":{"coordinates":[-1.179458,46.173668],"type":"Point"},"properties":{"code":"1308","description":"[CimPaVi] ASpln","id":"MOBIITI:Quay:79706","name":"Cimetière Paysager","parent_station":"MOBIITI:StopPlace:54060","wheelchair_boarding":"available"},"type":"Feature"},{"geometry":{"coordinates":[-1.184938,46.209476],"type":"Point"},"properties":{"code":"2519","description":"[OuailPV] Abri","id":"MOBIITI:Quay:79350","name":"L'Ouaille","parent_station":"MOBIITI:StopPlace:53877","wheelchair_boarding":"available"},"type":"Feature"},{"geometry":{"coordinates":[-1.092344,46.174412],"type":"Point"},"properties":{"code":"4006","description":"[ChaFrCB] Abri","id":"MOBIITI:Quay:79934","name":"Chagnolet les Frênes","parent_station":"MOBIITI:StopPlace:54189","wheelchair_boarding":"not available"},"type":"Feature"},{"geometry":{"coordinates":[-1.103505,46.179165],"type":"Point"},"properties":{"description":"","id":"MOBIITI:StopPlace:54544","name":"P+R Beaulieu","wheelchair_boarding":"available"},"type":"Feature"},{"geometry":{"coordinates":[-1.203241,46.161606],"type":"Point"},"properties":{"code":"1103","description":"[AirLiAy] Abri","id":"MOBIITI:Quay:79260","name":"Air Liquide","parent_station":"MOBIITI:StopPlace:53828","wheelchair_boarding":"available"},"type":"Feature"},{"geometry":{"coordinates":[-1.188844,46.153996],"type":"Point"},"properties":{"code":"1217","description":"[LPNeuCB] AScln","id":"MOBIITI:Quay:80412","name":"Lac de Port-Neuf","parent_station":"MOBIITI:StopPlace:54590","wheelchair_boarding":"available"},"type":"Feature"},{"geometry":{"coordinates":[-1.100005,46.094921],"type":"Point"},"properties":{"code":"8422","description":"[StJSaCh]","id":"MOBIITI:Quay:79734","name":"Saint-Jean-des-Sables","parent_station":"MOBIITI:StopPlace:54075","wheelchair_boarding":"not available"},"type":"Feature"},{"geometry":{"coordinates":[-1.105286,46.206413],"type":"Point"},"properties":{"code":"3414","description":"[OceanSX] AScln","id":"MOBIITI:Quay:79432","name":"Océan","parent_station":"MOBIITI:StopPlace:53920","wheelchair_boarding":"available"},"type":"Feature"},{"geometry":{"coordinates":[-1.123119,46.156906],"type":"Point"},"properties":{"code":"1727","description":"[RobesDB] Abri","id":"MOBIITI:Quay:79542","name":"Robespierre","parent_station":"MOBIITI:StopPlace:53974","wheelchair_boarding":"available"},"type":"Feature"},{"geometry":{"coordinates":[-1.059844,46.087566],"type":"Point"},"properties":{"description":"","id":"MOBIITI:StopPlace:54023","name":"La Ragoterie","wheelchair_boarding":"unknown"},"type":"Feature"},{"geometry":{"coordinates":[-1.104406,46.104507],"type":"Point"},"properties":{"code":"8401","description":"[BlockGa]","id":"MOBIITI:Quay:79741","name":"Blockhaus","parent_station":"MOBIITI:StopPlace:54079","wheelchair_boarding":"not available"},"type":"Feature"},{"geometry":{"coordinates":[-1.053982,46.099972],"type":"Point"},"properties":{"code":"9412","description":"","id":"MOBIITI:Quay:79645","name":"Le Collet","parent_station":"MOBIITI:StopPlace:54028","wheelchair_boarding":"unknown"},"type":"Feature"},{"geometry":{"coordinates":[-1.153652,46.161934],"type":"Point"},"properties":{"code":"1037","description":"[PdV_Y] ASpln","id":"MOBIITI:Quay:79268","name":"Place de Verdun","parent_station":"MOBIITI:StopPlace:53831","wheelchair_boarding":"not available"},"type":"Feature"},{"geometry":{"coordinates":[-1.111491,46.137962],"type":"Point"},"properties":{"description":"","id":"MOBIITI:StopPlace:54014","name":"Anville","wheelchair_boarding":"unknown"},"type":"Feature"},{"geometry":{"coordinates":[-1.119933,46.156551],"type":"Point"},"properties":{"code":"1704","description":"[CMgatSR] AScln","id":"MOBIITI:Quay:79549","name":"Clos Margat","parent_station":"MOBIITI:StopPlace:53977","wheelchair_boarding":"not available"},"type":"Feature"},{"geometry":{"coordinates":[-1.095601,46.18494],"type":"Point"},"properties":{"code":"3033","description":"","id":"MOBIITI:Quay:79496","name":"La Cossarderie","parent_station":"MOBIITI:StopPlace:53950","wheelchair_boarding":"unknown"},"type":"Feature"},{"geometry":{"coordinates":[-1.088868,46.157707],"type":"Point"},"properties":{"description":"","id":"MOBIITI:StopPlace:54160","name":"Les Coureilles","wheelchair_boarding":"available"},"type":"Feature"},{"geometry":{"coordinates":[-1.0596,46.106758],"type":"Point"},"properties":{"code":"9418","description":"","id":"MOBIITI:Quay:79636","name":"Les Monrois","parent_station":"MOBIITI:StopPlace:54024","wheelchair_boarding":"unknown"},"type":"Feature"},{"geometry":{"coordinates":[-1.120651,46.18309],"type":"Point"},"properties":{"code":"3019","description":"[CILPuPu]","id":"MOBIITI:Quay:79829","name":"CIL","parent_station":"MOBIITI:StopPlace:54129","wheelchair_boarding":"unknown"},"type":"Feature"},{"geometry":{"coordinates":[-0.990182,46.210407],"type":"Point"},"properties":{"description":"","id":"MOBIITI:StopPlace:54193","name":"Villa Laurius","wheelchair_boarding":"unknown"},"type":"Feature"},{"geometry":{"coordinates":[-1.16733,46.180206],"type":"Point"},"properties":{"code":"2026","description":"[FRosePV] AScen","id":"MOBIITI:Quay:79286","name":"Fief Rose","parent_station":"MOBIITI:StopPlace:53841","wheelchair_boarding":"not available"},"type":"Feature"},{"geometry":{"coordinates":[-1.070418,46.213387],"type":"Point"},"properties":{"code":"3403","description":"","id":"MOBIITI:Quay:79837","name":"La Godinerie","parent_station":"MOBIITI:StopPlace:54133","wheelchair_boarding":"unknown"},"type":"Feature"},{"geometry":{"coordinates":[-1.181969,46.195988],"type":"Point"},"properties":{"description":"","id":"MOBIITI:StopPlace:53856","name":"Les Mouettes","wheelchair_boarding":"unknown"},"type":"Feature"},{"geometry":{"coordinates":[-1.111404,46.11026],"type":"Point"},